Elapsed,Date,Time,Pitch,Roll,Heading,Latitude,Longitude,Altitude,Next WP,Velocity,RTK Status,Latitude RTK,Longitude RTK,Altitude RTK,ALT:Altitude,ALT:ID,GAS:Methane,GAS:Status
1.76358E+12,11/19/2025,42:32.1,,,,,,,,,,,,,0.15,v1:altimeter:LIGHTWARESF30D:0,,
1.76358E+12,11/19/2025,42:32.2,0.62,-1.49,102.72,40.46035198,-109.5652718,0,,0,OFF,,,,0.14,v1:altimeter:LIGHTWARESF30D:0,,
1.76358E+12,11/19/2025,42:32.3,0.61,-1.49,102.71,40.46035198,-109.5652718,0,,0,OFF,,,,0.14,v1:altimeter:LIGHTWARESF30D:0,10,1
1.76358E+12,11/19/2025,42:32.4,0.62,-1.49,102.76,40.46035198,-109.5652718,0,,0,OFF,,,,0.14,v1:altimeter:LIGHTWARESF30D:0,,
1.76358E+12,11/19/2025,42:32.5,0.63,-1.49,102.75,40.46035198,-109.5652716,0,,0.01,OFF,,,,0.14,v1:altimeter:LIGHTWARESF30D:0,,
1.76358E+12,11/19/2025,42:32.6,0.63,-1.49,102.75,40.46035197,-109.5652716,0,,0.01,OFF,,,,0.15,v1:altimeter:LIGHTWARESF30D:0,,
1.76358E+12,11/19/2025,42:32.7,0.63,-1.48,102.74,40.46035198,-109.5652717,0,,0,OFF,,,,0.14,v1:altimeter:LIGHTWARESF30D:0,,
1.76358E+12,11/19/2025,42:32.7,0.63,-1.48,102.72,40.46035198,-109.5652717,0,,0,OFF,,,,0.16,v1:altimeter:LIGHTWARESF30D:0,1,1
1.76358E+12,11/19/2025,42:32.9,0.64,-1.48,102.79,40.46035198,-109.5652715,0,,0,OFF,,,,0.15,v1:altimeter:LIGHTWARESF30D:0,,
1.76358E+12,11/19/2025,42:33.0,0.62,-1.48,102.81,40.46035198,-109.5652715,0,,0,OFF,,,,0.14,v1:altimeter:LIGHTWARESF30D:0,,
1.76358E+12,11/19/2025,42:33.1,0.65,-1.49,102.81,40.46035198,-109.5652714,0,,0,OFF,,,,0.14,v1:altimeter:LIGHTWARESF30D:0,,
1.76358E+12,11/19/2025,42:33.2,0.68,-1.49,102.83,40.46035198,-109.5652714,0,,0,OFF,,,,0.15,v1:altimeter:LIGHTWARESF30D:0,,
1.76358E+12,11/19/2025,42:33.2,0.67,-1.48,102.84,40.46035198,-109.5652715,0,,0,OFF,,,,0.15,v1:altimeter:LIGHTWARESF30D:0,2,1
1.76358E+12,11/19/2025,42:33.4,0.65,-1.48,102.77,40.46035198,-109.5652714,0,,0.01,OFF,,,,0.14,v1:altimeter:LIGHTWARESF30D:0,,
1.76358E+12,11/19/2025,42:33.5,0.66,-1.47,102.78,40.46035198,-109.5652713,0,,0.01,OFF,,,,0.13,v1:altimeter:LIGHTWARESF30D:0,,
1.76358E+12,11/19/2025,42:33.6,0.66,-1.48,102.76,40.46035198,-109.5652713,0,,0.01,OFF,,,,0.14,v1:altimeter:LIGHTWARESF30D:0,,
1.76358E+12,11/19/2025,42:33.7,0.66,-1.46,102.74,40.46035198,-109.5652714,0,,0.01,OFF,,,,0.14,v1:altimeter:LIGHTWARESF30D:0,,
1.76358E+12,11/19/2025,42:33.8,0.66,-1.46,102.71,40.46035198,-109.5652713,0,,0.01,OFF,,,,0.14,v1:altimeter:LIGHTWARESF30D:0,7,1
1.76358E+12,11/19/2025,42:33.9,0.68,-1.45,102.71,40.46035198,-109.5652712,0,,0.01,OFF,,,,0.16,v1:altimeter:LIGHTWARESF30D:0,,
1.76358E+12,11/19/2025,42:34.0,0.69,-1.47,102.7,40.46035198,-109.5652712,0,,0.01,OFF,,,,0.15,v1:altimeter:LIGHTWARESF30D:0,,
1.76358E+12,11/19/2025,42:34.1,0.68,-1.48,102.74,40.46035198,-109.5652713,0,,0.01,OFF,,,,0.14,v1:altimeter:LIGHTWARESF30D:0,,
1.76358E+12,11/19/2025,42:34.2,0.68,-1.47,102.71,40.46035198,-109.5652713,0,,0.01,OFF,,,,0.13,v1:altimeter:LIGHTWARESF30D:0,,
1.76358E+12,11/19/2025,42:34.3,0.72,-1.47,102.75,40.46035199,-109.5652712,0,,0.01,OFF,,,,0.15,v1:altimeter:LIGHTWARESF30D:0,6,1
1.76358E+12,11/19/2025,42:34.4,0.74,-1.46,102.72,40.46035199,-109.5652712,0,,0.01,OFF,,,,0.14,v1:altimeter:LIGHTWARESF30D:0,,
1.76358E+12,11/19/2025,42:34.5,0.76,-1.46,102.73,40.46035199,-109.5652712,0,,0.01,OFF,,,,0.15,v1:altimeter:LIGHTWARESF30D:0,,
1.76358E+12,11/19/2025,42:34.6,0.84,-1.43,102.73,40.46035199,-109.5652712,0,,0.02,OFF,,,,0.15,v1:altimeter:LIGHTWARESF30D:0,,
1.76358E+12,11/19/2025,42:34.7,1.12,-1.42,102.65,40.46035201,-109.5652711,0,,0.04,OFF,,,,0.13,v1:altimeter:LIGHTWARESF30D:0,,
1.76358E+12,11/19/2025,42:34.7,1.6,-1.23,102.46,40.46035203,-109.5652711,0,,0.08,OFF,,,,0.14,v1:altimeter:LIGHTWARESF30D:0,0,1
1.76358E+12,11/19/2025,42:34.9,2.09,-0.49,102.4,40.4603521,-109.5652712,0.02,,0.25,OFF,,,,0.15,v1:altimeter:LIGHTWARESF30D:0,,
1.76358E+12,11/19/2025,42:35.0,2.12,0.59,102.49,40.46035218,-109.5652713,0.04,,0.42,OFF,,,,0.14,v1:altimeter:LIGHTWARESF30D:0,,
1.76358E+12,11/19/2025,42:35.1,1.9,1.77,102.72,40.4603521,-109.5652713,0.1,,0.68,OFF,,,,0.13,v1:altimeter:LIGHTWARESF30D:0,,
1.76358E+12,11/19/2025,42:35.2,1.71,2.01,102.86,40.46035217,-109.5652714,0.17,,0.9,OFF,,,,0.14,v1:altimeter:LIGHTWARESF30D:0,,
1.76358E+12,11/19/2025,42:35.3,1.05,1.53,102.97,40.46035247,-109.5652715,0.28,,1.16,OFF,,,,0.11,v1:altimeter:LIGHTWARESF30D:0,3,1
1.76358E+12,11/19/2025,42:35.4,-0.75,0.86,102.91,40.46035256,-109.5652717,0.4,,1.43,OFF,,,,0.15,v1:altimeter:LIGHTWARESF30D:0,,
1.76358E+12,11/19/2025,42:35.5,-2.31,0.94,102.8,40.46035247,-109.565272,0.59,,1.74,OFF,,,,0.16,v1:altimeter:LIGHTWARESF30D:0,,
1.76358E+12,11/19/2025,42:35.6,-2.95,1.17,102.62,40.46035252,-109.5652722,0.74,,1.96,OFF,,,,0.18,v1:altimeter:LIGHTWARESF30D:0,,
1.76358E+12,11/19/2025,42:35.7,-2.92,1.33,102.41,40.46035277,-109.5652722,0.95,,2.25,OFF,,,,0.18,v1:altimeter:LIGHTWARESF30D:0,,
1.76358E+12,11/19/2025,42:35.8,-2.43,1.13,102.21,40.46035279,-109.5652723,1.18,,2.55,OFF,,,,0.19,v1:altimeter:LIGHTWARESF30D:0,13,1
1.76358E+12,11/19/2025,42:35.9,-1.7,0.62,101.99,40.46035289,-109.565272,1.45,,2.87,OFF,,,,0.15,v1:altimeter:LIGHTWARESF30D:0,,
1.76358E+12,11/19/2025,42:36.0,-1.04,0.17,101.88,40.46035291,-109.565272,1.75,,3.2,OFF,,,,0.16,v1:altimeter:LIGHTWARESF30D:0,,
1.76358E+12,11/19/2025,42:36.1,-0.75,0.28,101.93,40.46035294,-109.5652717,2.09,,3.59,OFF,,,,0.13,v1:altimeter:LIGHTWARESF30D:0,,
1.76358E+12,11/19/2025,42:36.2,-0.7,0.56,102.03,40.46035299,-109.5652717,2.46,,3.86,OFF,,,,0.13,v1:altimeter:LIGHTWARESF30D:0,,
1.76358E+12,11/19/2025,42:36.2,-0.89,1,102.18,40.46035329,-109.5652716,2.86,,4.18,OFF,,,,0.13,v1:altimeter:LIGHTWARESF30D:0,2,1
1.76358E+12,11/19/2025,42:36.4,-1.16,1.32,102.34,40.46035338,-109.5652715,3.29,,4.47,OFF,,,,0.1,v1:altimeter:LIGHTWARESF30D:0,,
1.76358E+12,11/19/2025,42:36.5,-1.58,1.36,102.42,40.46035346,-109.5652716,3.75,,4.72,OFF,,,,0.11,v1:altimeter:LIGHTWARESF30D:0,,
1.76358E+12,11/19/2025,42:36.6,-1.81,1.06,102.49,40.46035351,-109.5652716,4.23,,4.92,OFF,,,,0.1,v1:altimeter:LIGHTWARESF30D:0,,
1.76358E+12,11/19/2025,42:36.7,-1.96,0.96,102.51,40.46035376,-109.5652712,4.73,,5.07,OFF,,,,0.1,v1:altimeter:LIGHTWARESF30D:0,,
1.76358E+12,11/19/2025,42:36.8,-2.19,1,102.53,40.46035381,-109.5652711,5.24,,5.16,OFF,,,,0.11,v1:altimeter:LIGHTWARESF30D:0,3,1
1.76358E+12,11/19/2025,42:36.9,-2.41,1.35,102.54,40.46035372,-109.565271,5.87,,5.23,OFF,,,,0.1,v1:altimeter:LIGHTWARESF30D:0,,
1.76358E+12,11/19/2025,42:37.0,-2.45,1.69,102.52,40.46035374,-109.5652709,6.4,,5.25,OFF,,,,0.09,v1:altimeter:LIGHTWARESF30D:0,,
1.76358E+12,11/19/2025,42:37.1,-2.51,1.97,102.48,40.46035356,-109.5652708,6.92,,5.25,OFF,,,,0.11,v1:altimeter:LIGHTWARESF30D:0,,
1.76358E+12,11/19/2025,42:37.2,-2.51,2.13,102.41,40.46035352,-109.5652706,7.46,,5.24,OFF,,,,0.11,v1:altimeter:LIGHTWARESF30D:0,,
1.76358E+12,11/19/2025,42:37.3,-2.41,2.15,102.41,40.46035339,-109.5652703,7.88,,5.22,OFF,,,,0.11,v1:altimeter:LIGHTWARESF30D:0,8,1
1.76358E+12,11/19/2025,42:37.4,-2.15,1.99,102.4,40.46035328,-109.5652701,8.41,,5.19,OFF,,,,0.1,v1:altimeter:LIGHTWARESF30D:0,,
1.76358E+12,11/19/2025,42:37.5,-1.82,1.63,102.4,40.46035289,-109.5652699,9.04,,5.16,OFF,,,,0.11,v1:altimeter:LIGHTWARESF30D:0,,
1.76358E+12,11/19/2025,42:37.6,-1.57,1.32,102.44,40.46035273,-109.5652696,9.56,,5.12,OFF,,,,0.12,v1:altimeter:LIGHTWARESF30D:0,,
1.76358E+12,11/19/2025,42:37.7,-1.27,0.93,102.47,40.46035248,-109.5652692,10.07,,5.1,OFF,,,,0.12,v1:altimeter:LIGHTWARESF30D:0,,
1.76358E+12,11/19/2025,42:37.7,-1.12,0.72,102.51,40.46035234,-109.565269,10.49,,5.08,OFF,,,,0.1,v1:altimeter:LIGHTWARESF30D:0,12,1
1.76358E+12,11/19/2025,42:37.9,-0.91,0.75,102.56,40.46035239,-109.5652687,11,,5.06,OFF,,,,0.1,v1:altimeter:LIGHTWARESF30D:0,,
1.76358E+12,11/19/2025,42:38.0,-0.4,0.44,102.55,40.46035223,-109.5652684,11.61,,5.03,OFF,,,,0.11,v1:altimeter:LIGHTWARESF30D:0,,
1.76358E+12,11/19/2025,42:38.1,0.06,-0.13,102.52,40.46035207,-109.5652682,12.01,,5.02,OFF,,,,0.11,v1:altimeter:LIGHTWARESF30D:0,,
1.76358E+12,11/19/2025,42:38.2,0.55,-0.89,102.47,40.46035194,-109.565268,12.53,,5,OFF,,,,0.11,v1:altimeter:LIGHTWARESF30D:0,,
1.76358E+12,11/19/2025,42:38.2,0.64,-1,102.5,40.46035203,-109.5652677,13.03,,4.99,OFF,,,,0.11,v1:altimeter:LIGHTWARESF30D:0,3,1
1.76358E+12,11/19/2025,42:38.4,0.54,-0.62,102.58,40.46035198,-109.5652674,13.63,,4.99,OFF,,,,0.12,v1:altimeter:LIGHTWARESF30D:0,,
1.76358E+12,11/19/2025,42:38.5,0.38,-0.18,102.63,40.46035177,-109.5652673,14.03,,4.98,OFF,,,,0.12,v1:altimeter:LIGHTWARESF30D:0,,
1.76358E+12,11/19/2025,42:38.6,0.25,0.03,102.63,40.46035176,-109.5652671,14.53,,4.98,OFF,,,,0.11,v1:altimeter:LIGHTWARESF30D:0,,
1.76358E+12,11/19/2025,42:38.7,0.16,0,102.59,40.46035166,-109.5652669,15.03,,4.98,OFF,,,,0.12,v1:altimeter:LIGHTWARESF30D:0,,
1.76358E+12,11/19/2025,42:38.8,0.17,-0.07,102.63,40.46035168,-109.5652668,15.52,,4.98,OFF,,,,0.11,v1:altimeter:LIGHTWARESF30D:0,77,1
1.76358E+12,11/19/2025,42:38.9,0.24,0.08,102.67,40.46035158,-109.5652667,16.02,,4.98,OFF,,,,0.11,v1:altimeter:LIGHTWARESF30D:0,,
1.76358E+12,11/19/2025,42:39.0,0.24,0.38,102.66,40.46035164,-109.5652665,16.52,,4.98,OFF,,,,0.12,v1:altimeter:LIGHTWARESF30D:0,,
1.76358E+12,11/19/2025,42:39.1,0.16,0.61,102.62,40.46035162,-109.5652663,17.01,,4.98,OFF,,,,0.11,v1:altimeter:LIGHTWARESF30D:0,,
1.76358E+12,11/19/2025,42:39.2,-0.02,0.89,102.63,40.46035168,-109.5652662,17.52,,4.99,OFF,,,,0.12,v1:altimeter:LIGHTWARESF30D:0,,
1.76358E+12,11/19/2025,42:39.3,-0.2,1.03,102.61,40.46035137,-109.5652664,18.02,,4.99,OFF,,,,0.12,v1:altimeter:LIGHTWARESF30D:0,76,1
1.76358E+12,11/19/2025,42:39.4,-0.48,0.95,102.55,40.46035141,-109.5652664,18.62,,5,OFF,,,,0.12,v1:altimeter:LIGHTWARESF30D:0,,
1.76358E+12,11/19/2025,42:39.5,-0.47,0.81,102.51,40.46035122,-109.5652662,19.01,,5.01,OFF,,,,0.12,v1:altimeter:LIGHTWARESF30D:0,,
1.76358E+12,11/19/2025,42:39.6,-0.28,0.73,102.49,40.46035123,-109.5652661,19.51,,5.01,OFF,,,,0.12,v1:altimeter:LIGHTWARESF30D:0,,
1.76358E+12,11/19/2025,42:39.7,-0.17,0.99,102.55,40.46035136,-109.565266,20.11,,5.01,OFF,,,,0.12,v1:altimeter:LIGHTWARESF30D:0,,
1.76358E+12,11/19/2025,42:39.7,-0.25,1.26,102.6,40.46035138,-109.5652659,20.53,,5.02,OFF,,,,0.12,v1:altimeter:LIGHTWARESF30D:0,77,1
1.76358E+12,11/19/2025,42:39.8,-0.54,1.64,102.58,40.46035229,-109.5652661,21.04,,5.01,OFF,,,,0.11,v1:altimeter:LIGHTWARESF30D:0,,
1.76358E+12,11/19/2025,42:40.0,-0.86,1.94,102.56,40.46035238,-109.5652661,21.54,,5.01,OFF,,,,0.12,v1:altimeter:LIGHTWARESF30D:0,,
1.76358E+12,11/19/2025,42:40.1,-0.9,2.03,102.53,40.46035248,-109.5652659,22.04,,5.01,OFF,,,,0.12,v1:altimeter:LIGHTWARESF30D:0,,
1.76358E+12,11/19/2025,42:40.2,-0.7,1.91,102.52,40.46035255,-109.5652658,22.53,,5.01,OFF,,,,0.12,v1:altimeter:LIGHTWARESF30D:0,,
1.76358E+12,11/19/2025,42:40.3,-0.53,1.61,102.5,40.46035227,-109.5652658,23.03,,5.01,OFF,,,,0.12,v1:altimeter:LIGHTWARESF30D:0,45,1
1.76358E+12,11/19/2025,42:40.4,-0.27,1.08,102.54,40.46035227,-109.5652657,23.63,,5.01,OFF,,,,0.12,v1:altimeter:LIGHTWARESF30D:0,,
1.76358E+12,11/19/2025,42:40.5,-0.32,0.76,102.64,40.4603524,-109.5652659,24.13,,5.01,OFF,,,,0.13,v1:altimeter:LIGHTWARESF30D:0,,
1.76358E+12,11/19/2025,42:40.6,-0.45,0.72,102.65,40.4603524,-109.5652659,24.63,,5,OFF,,,,0.12,v1:altimeter:LIGHTWARESF30D:0,,
1.76358E+12,11/19/2025,42:40.7,-0.63,0.83,102.63,40.46035214,-109.5652657,25.13,,5,OFF,,,,0.12,v1:altimeter:LIGHTWARESF30D:0,,
1.76358E+12,11/19/2025,42:40.8,-0.75,0.93,102.61,40.46035213,-109.5652657,25.53,,5,OFF,,,,0.13,v1:altimeter:LIGHTWARESF30D:0,3,1
1.76358E+12,11/19/2025,42:40.9,-0.83,0.94,102.57,40.46035211,-109.5652656,26.03,,4.99,OFF,,,,0.12,v1:altimeter:LIGHTWARESF30D:0,,
1.76358E+12,11/19/2025,42:41.0,-0.8,0.69,102.52,40.46035208,-109.5652657,26.52,,5,OFF,,,,0.12,v1:altimeter:LIGHTWARESF30D:0,,
1.76358E+12,11/19/2025,42:41.1,-0.93,0.48,102.5,40.46035192,-109.5652656,27.03,,5,OFF,,,,0.12,v1:altimeter:LIGHTWARESF30D:0,,
1.76358E+12,11/19/2025,42:41.2,-1.33,0.23,102.46,40.46035187,-109.5652656,27.52,,5,OFF,,,,0.11,v1:altimeter:LIGHTWARESF30D:0,,
1.76358E+12,11/19/2025,42:41.2,-1.66,0.1,102.45,40.46035178,-109.5652656,28.02,,4.99,OFF,,,,0.12,v1:altimeter:LIGHTWARESF30D:0,19,1
1.76358E+12,11/19/2025,42:41.4,-1.92,0.15,102.38,40.46035171,-109.5652656,28.62,,4.98,OFF,,,,0.12,v1:altimeter:LIGHTWARESF30D:0,,
1.76358E+12,11/19/2025,42:41.5,-1.85,0.16,102.36,40.4603515,-109.5652654,29.02,,4.97,OFF,,,,0.12,v1:altimeter:LIGHTWARESF30D:0,,
1.76358E+12,11/19/2025,42:41.6,-1.56,0.21,102.32,40.46035143,-109.5652653,29.51,,4.96,OFF,,,,0.13,v1:altimeter:LIGHTWARESF30D:0,,
1.76358E+12,11/19/2025,42:41.7,-1.18,0.35,102.32,40.46035128,-109.5652653,30.01,,4.96,OFF,,,,0.12,v1:altimeter:LIGHTWARESF30D:0,,
1.76358E+12,11/19/2025,42:41.8,-0.92,0.46,102.33,40.4603512,-109.5652652,30.61,,4.96,OFF,,,,0.12,v1:altimeter:LIGHTWARESF30D:0,,
1.76358E+12,11/19/2025,42:41.8,-0.92,0.46,102.33,40.4603512,-109.5652652,30.61,,4.96,OFF,,,,0.12,v1:altimeter:LIGHTWARESF30D:0,24,1
1.76358E+12,11/19/2025,42:41.9,-0.87,0.5,102.35,40.46035103,-109.5652651,31.1,,4.97,OFF,,,,0.12,v1:altimeter:LIGHTWARESF30D:0,,
1.76358E+12,11/19/2025,42:42.0,-0.98,0.41,102.35,40.46035094,-109.565265,31.6,,4.98,OFF,,,,0.11,v1:altimeter:LIGHTWARESF30D:0,,
1.76358E+12,11/19/2025,42:42.1,-1.22,0.21,102.36,40.46035096,-109.565265,32.1,,4.99,OFF,,,,0.11,v1:altimeter:LIGHTWARESF30D:0,,
1.76358E+12,11/19/2025,42:42.2,-1.15,0.01,102.38,40.46035087,-109.5652649,32.6,,4.99,OFF,,,,0.11,v1:altimeter:LIGHTWARESF30D:0,,
1.76358E+12,11/19/2025,42:42.3,-1.07,-0.08,102.39,40.46035057,-109.5652648,33,,4.99,OFF,,,,0.12,v1:altimeter:LIGHTWARESF30D:0,37,1
1.76358E+12,11/19/2025,42:42.4,-0.92,-0.11,102.42,40.46035043,-109.5652647,33.49,,4.99,OFF,,,,0.12,v1:altimeter:LIGHTWARESF30D:0,,
1.76358E+12,11/19/2025,42:42.5,-0.85,-0.03,102.42,40.46035034,-109.5652647,33.99,,4.99,OFF,,,,0.12,v1:altimeter:LIGHTWARESF30D:0,,
1.76358E+12,11/19/2025,42:42.6,-0.91,0,102.43,40.46035024,-109.5652646,34.48,,4.99,OFF,,,,0.11,v1:altimeter:LIGHTWARESF30D:0,,
1.76358E+12,11/19/2025,42:42.7,-0.84,-0.12,102.41,40.46035016,-109.5652644,34.98,,5,OFF,,,,0.11,v1:altimeter:LIGHTWARESF30D:0,,
1.76358E+12,11/19/2025,42:42.8,-0.71,-0.21,102.39,40.46035008,-109.5652644,35.48,,5,OFF,,,,0.11,v1:altimeter:LIGHTWARESF30D:0,100,1
1.76358E+12,11/19/2025,42:42.9,-0.37,-0.45,102.33,40.46034999,-109.5652644,35.98,,4.97,OFF,,,,0.12,v1:altimeter:LIGHTWARESF30D:0,,
1.76358E+12,11/19/2025,42:43.0,-0.28,-0.74,102.29,40.4603499,-109.5652643,36.46,,4.84,OFF,,,,0.11,v1:altimeter:LIGHTWARESF30D:0,,
1.76358E+12,11/19/2025,42:43.1,-0.28,-0.97,102.26,40.46034982,-109.5652641,36.93,,4.64,OFF,,,,0.11,v1:altimeter:LIGHTWARESF30D:0,,
1.76358E+12,11/19/2025,42:43.2,-0.36,-0.99,102.27,40.46034976,-109.5652641,37.38,,4.38,OFF,,,,0.12,v1:altimeter:LIGHTWARESF30D:0,,
1.76358E+12,11/19/2025,42:43.2,-0.22,-1.05,102.26,40.46034973,-109.565264,37.8,,4.07,OFF,,,,0.09,v1:altimeter:LIGHTWARESF30D:0,4,1
1.76358E+12,11/19/2025,42:43.4,-0.17,-1,102.3,40.46034969,-109.5652639,38.18,,3.73,OFF,,,,0.1,v1:altimeter:LIGHTWARESF30D:0,,
1.76358E+12,11/19/2025,42:43.5,0.07,-0.92,102.33,40.46034977,-109.5652638,38.6,,3.3,OFF,,,,0.11,v1:altimeter:LIGHTWARESF30D:0,,
1.76358E+12,11/19/2025,42:43.6,0.15,-0.76,102.36,40.46034977,-109.5652637,38.83,,2.99,OFF,,,,0.11,v1:altimeter:LIGHTWARESF30D:0,,
1.76358E+12,11/19/2025,42:43.7,0.45,-0.8,102.34,40.46034976,-109.5652638,39.11,,2.59,OFF,,,,0.11,v1:altimeter:LIGHTWARESF30D:0,,
1.76358E+12,11/19/2025,42:43.8,0.53,-0.88,102.35,40.46034978,-109.5652637,39.33,,2.17,OFF,,,,0.12,v1:altimeter:LIGHTWARESF30D:0,30,0
1.76358E+12,11/19/2025,42:43.9,0.71,-1.1,102.35,40.46034971,-109.5652636,39.56,,1.65,OFF,,,,0.1,v1:altimeter:LIGHTWARESF30D:0,,
1.76358E+12,11/19/2025,42:44.0,0.84,-1.19,102.41,40.46034974,-109.5652636,39.67,,1.23,OFF,,,,0.1,v1:altimeter:LIGHTWARESF30D:0,,
1.76358E+12,11/19/2025,42:44.1,1.12,-1.28,102.42,40.46034981,-109.5652636,39.76,,0.92,OFF,,,,0.11,v1:altimeter:LIGHTWARESF30D:0,,
1.76358E+12,11/19/2025,42:44.2,1.45,-1.38,102.49,40.46034987,-109.5652636,39.8,,0.59,OFF,,,,0.11,v1:altimeter:LIGHTWARESF30D:0,,
1.76358E+12,11/19/2025,42:44.3,1.81,-1.56,102.54,40.46034989,-109.5652636,39.84,,0.35,OFF,,,,0.1,v1:altimeter:LIGHTWARESF30D:0,109,0
1.76358E+12,11/19/2025,42:44.4,2.32,-1.75,102.57,40.46035,-109.5652637,39.82,,0.19,OFF,,,,0.12,v1:altimeter:LIGHTWARESF30D:0,,
1.76358E+12,11/19/2025,42:44.5,2.68,-1.8,102.61,40.46035018,-109.5652639,39.82,,0.17,OFF,,,,0.11,v1:altimeter:LIGHTWARESF30D:0,,
1.76358E+12,11/19/2025,42:44.6,2.7,-1.75,102.65,40.46035035,-109.5652641,39.78,,0.23,OFF,,,,0.11,v1:altimeter:LIGHTWARESF30D:0,,
1.76358E+12,11/19/2025,42:44.7,2.53,-1.63,102.66,40.46035063,-109.5652643,39.76,,0.27,OFF,,,,0.11,v1:altimeter:LIGHTWARESF30D:0,,
1.76358E+12,11/19/2025,42:44.7,1.97,-1.47,102.66,40.46035082,-109.5652646,39.71,,0.31,OFF,,,,0.12,v1:altimeter:LIGHTWARESF30D:0,18,0
1.76358E+12,11/19/2025,42:44.9,1.16,-1.31,102.62,40.46035105,-109.5652649,39.68,,0.34,OFF,,,,0.11,v1:altimeter:LIGHTWARESF30D:0,,
1.76358E+12,11/19/2025,42:45.0,0.65,-1.25,102.6,40.46035133,-109.5652653,39.63,,0.34,OFF,,,,0.11,v1:altimeter:LIGHTWARESF30D:0,,
1.76358E+12,11/19/2025,42:45.1,-0.12,-1.31,102.54,40.46035154,-109.5652658,39.62,,0.34,OFF,,,,0.11,v1:altimeter:LIGHTWARESF30D:0,,
1.76358E+12,11/19/2025,42:45.2,-0.58,-1.23,102.53,40.46035185,-109.5652663,39.58,,0.33,OFF,,,,0.11,v1:altimeter:LIGHTWARESF30D:0,,
1.76358E+12,11/19/2025,42:45.3,-0.9,-0.98,102.51,40.46035217,-109.5652666,39.57,,0.32,OFF,,,,0.12,v1:altimeter:LIGHTWARESF30D:0,20,0
1.76358E+12,11/19/2025,42:45.4,-2.22,0.34,102.55,40.46035259,-109.5652671,39.57,,0.34,OFF,,,,0.11,v1:altimeter:LIGHTWARESF30D:0,,
1.76358E+12,11/19/2025,42:45.5,-3.89,1.81,102.48,40.46035282,-109.5652673,39.57,,0.34,OFF,,,,0.12,v1:altimeter:LIGHTWARESF30D:0,,
1.76358E+12,11/19/2025,42:45.6,-5.06,2.8,102.38,40.46035311,-109.5652677,39.58,,0.3,OFF,,,,0.11,v1:altimeter:LIGHTWARESF30D:0,,
1.76358E+12,11/19/2025,42:45.7,-5.29,2.9,102.25,40.46035349,-109.565268,39.58,,0.25,OFF,,,,0.11,v1:altimeter:LIGHTWARESF30D:0,,
1.76358E+12,11/19/2025,42:45.8,-4.92,2.74,102.26,40.46035359,-109.5652681,39.56,,0.22,OFF,,,,0.1,v1:altimeter:LIGHTWARESF30D:0,480,5
1.76358E+12,11/19/2025,42:45.9,-3.64,1.87,102.24,40.46035358,-109.5652684,39.57,,0.18,OFF,,,,0.12,v1:altimeter:LIGHTWARESF30D:0,,
1.76358E+12,11/19/2025,42:46.0,-2.85,1.32,102.25,40.46035364,-109.5652684,39.57,,0.16,OFF,,,,0.11,v1:altimeter:LIGHTWARESF30D:0,,
1.76358E+12,11/19/2025,42:46.1,-1.94,0.69,102.32,40.46035386,-109.5652683,39.58,,0.15,OFF,,,,0.11,v1:altimeter:LIGHTWARESF30D:0,,
1.76358E+12,11/19/2025,42:46.2,-1.58,0.55,102.36,40.4603539,-109.5652684,39.59,,0.14,OFF,,,,0.11,v1:altimeter:LIGHTWARESF30D:0,,
1.76358E+12,11/19/2025,42:46.3,-1.44,0.59,102.39,40.46035377,-109.5652684,39.6,,0.14,OFF,,,,0.11,v1:altimeter:LIGHTWARESF30D:0,146,1
1.76358E+12,11/19/2025,42:46.4,-1.46,0.72,102.46,40.46035378,-109.5652684,39.61,,0.13,OFF,,,,0.11,v1:altimeter:LIGHTWARESF30D:0,,
1.76358E+12,11/19/2025,42:46.5,-1.51,0.72,102.54,40.46035393,-109.5652685,39.62,,0.13,OFF,,,,0.1,v1:altimeter:LIGHTWARESF30D:0,,
1.76358E+12,11/19/2025,42:46.6,-1.69,0.6,102.59,40.46035393,-109.5652685,39.64,,0.12,OFF,,,,0.11,v1:altimeter:LIGHTWARESF30D:0,,
1.76358E+12,11/19/2025,42:46.7,-1.77,0.43,102.59,40.46035379,-109.5652683,39.65,,0.11,OFF,,,,0.11,v1:altimeter:LIGHTWARESF30D:0,,
1.76358E+12,11/19/2025,42:46.7,-1.78,0.27,102.6,40.46035377,-109.5652683,39.67,,0.1,OFF,,,,0.11,v1:altimeter:LIGHTWARESF30D:0,23,1
1.76358E+12,11/19/2025,42:46.9,-1.64,-0.1,102.59,40.46035368,-109.5652681,39.68,,0.1,OFF,,,,0.12,v1:altimeter:LIGHTWARESF30D:0,,
1.76358E+12,11/19/2025,42:47.0,-1.42,-0.29,102.58,40.46035364,-109.565268,39.71,,0.09,OFF,,,,0.12,v1:altimeter:LIGHTWARESF30D:0,,
1.76358E+12,11/19/2025,42:47.1,-1.23,-0.43,102.53,40.46035365,-109.565268,39.71,,0.08,OFF,,,,0.12,v1:altimeter:LIGHTWARESF30D:0,,
1.76358E+12,11/19/2025,42:47.2,-1.12,-0.52,102.46,40.46035362,-109.565268,39.73,,0.06,OFF,,,,0.12,v1:altimeter:LIGHTWARESF30D:0,,
1.76358E+12,11/19/2025,42:47.3,-1.03,-0.58,102.41,40.46035372,-109.5652679,39.74,,0.04,OFF,,,,0.11,v1:altimeter:LIGHTWARESF30D:0,17,0
1.76358E+12,11/19/2025,42:47.4,-1.02,-0.47,102.39,40.46035372,-109.5652678,39.75,,0.04,OFF,,,,0.12,v1:altimeter:LIGHTWARESF30D:0,,
1.76358E+12,11/19/2025,42:47.5,-1.01,-0.35,102.38,40.46035367,-109.5652676,39.75,,0.05,OFF,,,,0.12,v1:altimeter:LIGHTWARESF30D:0,,
1.76358E+12,11/19/2025,42:47.6,-1,-0.16,102.38,40.46035369,-109.5652675,39.77,,0.05,OFF,,,,0.12,v1:altimeter:LIGHTWARESF30D:0,,
1.76358E+12,11/19/2025,42:47.7,-0.95,-0.09,102.37,40.46035363,-109.5652674,39.77,,0.07,OFF,,,,0.12,v1:altimeter:LIGHTWARESF30D:0,,
1.76358E+12,11/19/2025,42:47.8,-0.98,-0.13,102.37,40.46035365,-109.5652673,39.77,,0.22,OFF,,,,0.11,v1:altimeter:LIGHTWARESF30D:0,119,0
1.76358E+12,11/19/2025,42:47.9,-0.94,-0.33,102.38,40.46035354,-109.5652672,39.73,,0.52,OFF,,,,0.11,v1:altimeter:LIGHTWARESF30D:0,,
1.76358E+12,11/19/2025,42:48.0,-0.89,-0.47,102.37,40.46035356,-109.5652671,39.68,,0.83,OFF,,,,0.12,v1:altimeter:LIGHTWARESF30D:0,,
1.76358E+12,11/19/2025,42:48.1,-0.7,-0.63,102.34,40.46035357,-109.5652669,39.59,,1.07,OFF,,,,0.12,v1:altimeter:LIGHTWARESF30D:0,,
1.76358E+12,11/19/2025,42:48.2,-0.29,-0.67,102.33,40.4603536,-109.5652669,39.45,,1.39,OFF,,,,0.11,v1:altimeter:LIGHTWARESF30D:0,,
1.76358E+12,11/19/2025,42:48.2,0.12,-0.59,102.32,40.46035359,-109.5652668,39.33,,1.56,OFF,,,,0.12,v1:altimeter:LIGHTWARESF30D:0,90,0
1.76358E+12,11/19/2025,42:48.4,0.56,-0.4,102.33,40.46035363,-109.5652667,39.17,,1.74,OFF,,,,0.1,v1:altimeter:LIGHTWARESF30D:0,,
1.76358E+12,11/19/2025,42:48.5,0.83,-0.34,102.31,40.46035363,-109.5652665,38.99,,1.88,OFF,,,,0.11,v1:altimeter:LIGHTWARESF30D:0,,
1.76358E+12,11/19/2025,42:48.6,1,-0.39,102.26,40.46035368,-109.5652665,38.79,,2,OFF,,,,0.12,v1:altimeter:LIGHTWARESF30D:0,,
1.76358E+12,11/19/2025,42:48.7,1.1,-0.69,102.15,40.4603535,-109.5652666,38.55,,2.1,OFF,,,,0.11,v1:altimeter:LIGHTWARESF30D:0,,
1.76358E+12,11/19/2025,42:48.8,1.06,-0.81,102.05,40.46035354,-109.5652667,38.38,,2.12,OFF,,,,0.12,v1:altimeter:LIGHTWARESF30D:0,174,0
1.76358E+12,11/19/2025,42:48.9,0.62,-0.85,101.94,40.4603537,-109.5652668,38.13,,2.12,OFF,,,,0.12,v1:altimeter:LIGHTWARESF30D:0,,
1.76358E+12,11/19/2025,42:49.0,-0.15,-1.01,101.79,40.46035377,-109.5652669,37.89,,2.11,OFF,,,,0.1,v1:altimeter:LIGHTWARESF30D:0,,
1.76358E+12,11/19/2025,42:49.1,-0.81,-1.16,101.66,40.46035374,-109.5652669,37.69,,2.09,OFF,,,,0.12,v1:altimeter:LIGHTWARESF30D:0,,
1.76358E+12,11/19/2025,42:49.2,-1.04,-1.52,101.64,40.46035384,-109.565267,37.47,,2.07,OFF,,,,0.11,v1:altimeter:LIGHTWARESF30D:0,,
1.76358E+12,11/19/2025,42:49.3,-1.36,-1.38,101.74,40.46035395,-109.5652674,37.31,,2.05,OFF,,,,0.11,v1:altimeter:LIGHTWARESF30D:0,41,0
1.76358E+12,11/19/2025,42:49.4,-1.76,-0.78,101.88,40.4603541,-109.5652676,37.06,,2,OFF,,,,0.11,v1:altimeter:LIGHTWARESF30D:0,,
1.76358E+12,11/19/2025,42:49.5,-1.65,-0.15,101.98,40.46035451,-109.5652676,36.9,,1.95,OFF,,,,0.12,v1:altimeter:LIGHTWARESF30D:0,,
1.76358E+12,11/19/2025,42:49.6,-1.44,0.24,102.05,40.46035467,-109.5652677,36.69,,1.88,OFF,,,,0.1,v1:altimeter:LIGHTWARESF30D:0,,
1.76358E+12,11/19/2025,42:49.7,-1.5,0.5,102.07,40.46035474,-109.5652678,36.51,,1.81,OFF,,,,0.11,v1:altimeter:LIGHTWARESF30D:0,,
1.76358E+12,11/19/2025,42:49.8,-1.65,0.4,102.04,40.46035483,-109.5652679,36.32,,1.76,OFF,,,,0.11,v1:altimeter:LIGHTWARESF30D:0,119,0
1.76358E+12,11/19/2025,42:49.9,-1.86,-0.14,102.04,40.46035477,-109.5652681,36.15,,1.7,OFF,,,,0.11,v1:altimeter:LIGHTWARESF30D:0,,
1.76358E+12,11/19/2025,42:50.0,-2.28,-0.79,102.14,40.46035485,-109.5652682,35.99,,1.65,OFF,,,,0.12,v1:altimeter:LIGHTWARESF30D:0,,
1.76358E+12,11/19/2025,42:50.1,-2.58,-0.72,102.26,40.46035513,-109.5652684,35.79,,1.62,OFF,,,,0.12,v1:altimeter:LIGHTWARESF30D:0,,
1.76358E+12,11/19/2025,42:50.2,-2.82,-0.56,102.41,40.46035521,-109.5652684,35.66,,1.6,OFF,,,,0.12,v1:altimeter:LIGHTWARESF30D:0,,
1.76358E+12,11/19/2025,42:50.3,-2.88,-0.16,102.48,40.46035526,-109.5652686,35.5,,1.59,OFF,,,,0.12,v1:altimeter:LIGHTWARESF30D:0,,
1.76358E+12,11/19/2025,42:50.4,-2.75,0.17,102.55,40.46035532,-109.5652686,35.35,,1.58,OFF,,,,0.13,v1:altimeter:LIGHTWARESF30D:0,,
1.76358E+12,11/19/2025,42:50.5,-2.51,0.24,102.52,40.4603554,-109.5652685,35.19,,1.58,OFF,,,,0.11,v1:altimeter:LIGHTWARESF30D:0,,
1.76358E+12,11/19/2025,42:50.6,-2.06,-0.13,102.45,40.46035544,-109.5652685,35.04,,1.59,OFF,,,,0.11,v1:altimeter:LIGHTWARESF30D:0,,
1.76358E+12,11/19/2025,42:50.7,-1.83,-0.3,102.45,40.46035551,-109.5652684,34.88,,1.61,OFF,,,,0.11,v1:altimeter:LIGHTWARESF30D:0,,
1.76358E+12,11/19/2025,42:50.8,-1.78,-0.37,102.46,40.46035553,-109.5652683,34.73,,1.65,OFF,,,,0.12,v1:altimeter:LIGHTWARESF30D:0,103,1
1.76358E+12,11/19/2025,42:50.9,-1.95,-0.4,102.49,40.4603555,-109.5652682,34.52,,1.76,OFF,,,,0.12,v1:altimeter:LIGHTWARESF30D:0,,
1.76358E+12,11/19/2025,42:51.0,-1.89,-0.34,102.54,40.46035552,-109.5652682,34.39,,1.83,OFF,,,,0.11,v1:altimeter:LIGHTWARESF30D:0,,
1.76358E+12,11/19/2025,42:51.1,-1.76,-0.35,102.53,40.46035543,-109.5652681,34.21,,1.96,OFF,,,,0.12,v1:altimeter:LIGHTWARESF30D:0,,
1.76358E+12,11/19/2025,42:51.2,-1.5,-0.36,102.44,40.46035542,-109.565268,33.96,,2.2,OFF,,,,0.12,v1:altimeter:LIGHTWARESF30D:0,,
1.76358E+12,11/19/2025,42:51.3,-1.29,-0.53,102.31,40.46035536,-109.5652678,33.77,,2.41,OFF,,,,0.12,v1:altimeter:LIGHTWARESF30D:0,119,1
1.76358E+12,11/19/2025,42:51.4,-1.06,-0.86,102.16,40.46035534,-109.5652677,33.53,,2.68,OFF,,,,0.11,v1:altimeter:LIGHTWARESF30D:0,,
1.76358E+12,11/19/2025,42:51.5,-0.65,-1.11,102.06,40.46035546,-109.5652675,33.25,,2.94,OFF,,,,0.11,v1:altimeter:LIGHTWARESF30D:0,,
1.76358E+12,11/19/2025,42:51.6,-1.02,-0.53,102.05,40.46035544,-109.5652674,32.94,,3.22,OFF,,,,0.12,v1:altimeter:LIGHTWARESF30D:0,,
1.76358E+12,11/19/2025,42:51.7,-2.09,0.95,102.12,40.46035546,-109.5652673,32.6,,3.48,OFF,,,,0.11,v1:altimeter:LIGHTWARESF30D:0,,
1.76358E+12,11/19/2025,42:51.7,-2.84,1.99,102.16,40.46035543,-109.5652672,32.25,,3.68,OFF,,,,0.12,v1:altimeter:LIGHTWARESF30D:0,36,1
1.76358E+12,11/19/2025,42:51.9,-2.17,2.3,102.36,40.46035526,-109.5652667,31.88,,3.85,OFF,,,,0.12,v1:altimeter:LIGHTWARESF30D:0,,
1.76358E+12,11/19/2025,42:52.0,-0.14,0.92,102.77,40.46035516,-109.5652664,31.4,,3.98,OFF,,,,0.12,v1:altimeter:LIGHTWARESF30D:0,,
1.76358E+12,11/19/2025,42:52.1,2.48,-1.89,103.09,40.46035509,-109.5652661,31.08,,4.06,OFF,,,,0.11,v1:altimeter:LIGHTWARESF30D:0,,
1.76358E+12,11/19/2025,42:52.2,3.22,-4.06,103.43,40.46035501,-109.5652658,30.67,,4.11,OFF,,,,0.11,v1:altimeter:LIGHTWARESF30D:0,,
1.76358E+12,11/19/2025,42:52.3,2.77,-5.6,103.97,40.46035499,-109.5652656,30.26,,4.16,OFF,,,,0.12,v1:altimeter:LIGHTWARESF30D:0,25,1
1.76358E+12,11/19/2025,42:52.4,1.41,-3.32,104.69,40.4603551,-109.5652653,29.65,,4.18,OFF,,,,0.12,v1:altimeter:LIGHTWARESF30D:0,,
1.76358E+12,11/19/2025,42:52.5,1.32,-0.52,104.69,40.46035538,-109.5652652,29.31,,4.19,OFF,,,,0.11,v1:altimeter:LIGHTWARESF30D:0,,
1.76358E+12,11/19/2025,42:52.6,1.82,3.85,103.97,40.46035554,-109.565265,28.88,,4.2,OFF,,,,0.13,v1:altimeter:LIGHTWARESF30D:0,,
1.76358E+12,11/19/2025,42:52.7,1.94,5.94,102.84,40.46035566,-109.5652647,28.38,,4.13,OFF,,,,0.12,v1:altimeter:LIGHTWARESF30D:0,,
1.76358E+12,11/19/2025,42:52.8,2.27,5.95,102.16,40.46035568,-109.5652646,28.12,,4.09,OFF,,,,0.13,v1:altimeter:LIGHTWARESF30D:0,360,5
1.76358E+12,11/19/2025,42:52.9,3.55,2.3,101.11,40.46035552,-109.5652644,27.64,,3.97,OFF,,,,0.12,v1:altimeter:LIGHTWARESF30D:0,,
1.76358E+12,11/19/2025,42:53.0,3.13,-1.94,100.83,40.46035543,-109.5652643,27.32,,3.83,OFF,,,,0.13,v1:altimeter:LIGHTWARESF30D:0,,
1.76358E+12,11/19/2025,42:53.1,2.23,-7.76,101.35,40.46035542,-109.5652644,26.95,,3.6,OFF,,,,0.11,v1:altimeter:LIGHTWARESF30D:0,,
1.76358E+12,11/19/2025,42:53.2,2.42,-9.63,103.34,40.46035559,-109.5652644,26.59,,3.36,OFF,,,,0.1,v1:altimeter:LIGHTWARESF30D:0,,
1.76358E+12,11/19/2025,42:53.3,3.82,-4,104.77,40.46035578,-109.5652644,26.28,,3.02,OFF,,,,0.13,v1:altimeter:LIGHTWARESF30D:0,169,0
1.76358E+12,11/19/2025,42:53.4,3.96,4.73,105.43,40.46035625,-109.5652645,25.99,,2.7,OFF,,,,0.13,v1:altimeter:LIGHTWARESF30D:0,,
1.76358E+12,11/19/2025,42:53.5,1.24,9.55,104.41,40.46035685,-109.5652647,25.75,,2.37,OFF,,,,0.12,v1:altimeter:LIGHTWARESF30D:0,,
1.76358E+12,11/19/2025,42:53.6,-2.6,8.53,102.31,40.46035699,-109.5652651,25.55,,2.05,OFF,,,,0.11,v1:altimeter:LIGHTWARESF30D:0,,
1.76358E+12,11/19/2025,42:53.7,-3.97,3.36,101.01,40.46035698,-109.5652656,25.34,,1.79,OFF,,,,0.11,v1:altimeter:LIGHTWARESF30D:0,,
1.76358E+12,11/19/2025,42:53.8,-3.91,-2.77,100.57,40.46035687,-109.565266,25.17,,1.57,OFF,,,,0.11,v1:altimeter:LIGHTWARESF30D:0,,
1.76358E+12,11/19/2025,42:53.9,-3.75,-6.26,100.96,40.46035667,-109.5652661,25.02,,1.39,OFF,,,,0.12,v1:altimeter:LIGHTWARESF30D:0,,
1.76358E+12,11/19/2025,42:54.0,-4.09,-4.97,101.68,40.46035669,-109.5652664,24.88,,1.29,OFF,,,,0.1,v1:altimeter:LIGHTWARESF30D:0,,
1.76358E+12,11/19/2025,42:54.1,-5.26,0,102.33,40.46035686,-109.5652664,24.76,,1.34,OFF,,,,0.11,v1:altimeter:LIGHTWARESF30D:0,,
1.76358E+12,11/19/2025,42:54.2,-5.85,3.01,102.43,40.46035689,-109.5652665,24.61,,1.5,OFF,,,,0.1,v1:altimeter:LIGHTWARESF30D:0,,
1.76358E+12,11/19/2025,42:54.3,-5.78,3.65,102.38,40.46035692,-109.5652663,24.51,,1.63,OFF,,,,0.1,v1:altimeter:LIGHTWARESF30D:0,23,1
1.76358E+12,11/19/2025,42:54.4,-5.12,3.24,102.34,40.46035689,-109.5652663,24.33,,1.9,OFF,,,,0.11,v1:altimeter:LIGHTWARESF30D:0,,
1.76358E+12,11/19/2025,42:54.5,-3.88,2.12,102.36,40.46035685,-109.5652664,24.13,,2.16,OFF,,,,0.11,v1:altimeter:LIGHTWARESF30D:0,,
1.76358E+12,11/19/2025,42:54.6,-2.52,1.56,102.34,40.46035677,-109.5652663,23.92,,2.39,OFF,,,,0.11,v1:altimeter:LIGHTWARESF30D:0,,
1.76358E+12,11/19/2025,42:54.7,-0.98,1.57,102.26,40.46035649,-109.5652661,23.61,,2.63,OFF,,,,0.11,v1:altimeter:LIGHTWARESF30D:0,,
1.76358E+12,11/19/2025,42:54.8,-0.13,1.91,102.22,40.46035638,-109.565266,23.4,,2.76,OFF,,,,0.12,v1:altimeter:LIGHTWARESF30D:0,270,5
1.76358E+12,11/19/2025,42:54.9,0.45,2.14,102.14,40.46035635,-109.5652656,23.12,,2.9,OFF,,,,0.12,v1:altimeter:LIGHTWARESF30D:0,,
1.76358E+12,11/19/2025,42:55.0,-0.04,2.48,102.19,40.46035618,-109.5652655,22.83,,3,OFF,,,,0.12,v1:altimeter:LIGHTWARESF30D:0,,
1.76358E+12,11/19/2025,42:55.1,-1.04,2.75,102.17,40.46035597,-109.5652655,22.53,,3.07,OFF,,,,0.12,v1:altimeter:LIGHTWARESF30D:0,,
1.76358E+12,11/19/2025,42:55.2,-1.6,2.23,102.13,40.46035574,-109.5652655,22.23,,3.09,OFF,,,,0.12,v1:altimeter:LIGHTWARESF30D:0,,
1.76358E+12,11/19/2025,42:55.2,-1.75,1.69,102.27,40.4603555,-109.5652655,21.92,,3.09,OFF,,,,0.1,v1:altimeter:LIGHTWARESF30D:0,59,1
1.76358E+12,11/19/2025,42:55.4,-1.13,0.47,102.56,40.46035514,-109.5652654,21.56,,3.09,OFF,,,,0.1,v1:altimeter:LIGHTWARESF30D:0,,
1.76358E+12,11/19/2025,42:55.5,-0.09,-0.86,102.85,40.46035492,-109.5652651,21.31,,3.08,OFF,,,,0.11,v1:altimeter:LIGHTWARESF30D:0,,
1.76358E+12,11/19/2025,42:55.6,-0.1,-0.77,103.18,40.46035464,-109.565265,21,,3.06,OFF,,,,0.12,v1:altimeter:LIGHTWARESF30D:0,,
1.76358E+12,11/19/2025,42:55.7,-0.85,0.58,103.59,40.46035433,-109.5652648,20.7,,3.03,OFF,,,,0.12,v1:altimeter:LIGHTWARESF30D:0,,
1.76358E+12,11/19/2025,42:55.8,-0.82,1.24,103.69,40.4603541,-109.5652647,20.39,,3.03,OFF,,,,0.12,v1:altimeter:LIGHTWARESF30D:0,22,1
1.76358E+12,11/19/2025,42:55.9,-0.41,0.13,103.47,40.46035379,-109.5652647,20.03,,3.04,OFF,,,,0.12,v1:altimeter:LIGHTWARESF30D:0,,
1.76358E+12,11/19/2025,42:56.0,-0.6,-1.56,103.26,40.46035346,-109.5652646,19.78,,3.04,OFF,,,,0.13,v1:altimeter:LIGHTWARESF30D:0,,
1.76358E+12,11/19/2025,42:56.1,-0.54,-2.51,103.14,40.46035318,-109.5652645,19.48,,3.03,OFF,,,,0.11,v1:altimeter:LIGHTWARESF30D:0,,
1.76358E+12,11/19/2025,42:56.2,-0.15,-3.85,102.98,40.4603529,-109.5652644,19.2,,2.99,OFF,,,,0.12,v1:altimeter:LIGHTWARESF30D:0,,
1.76358E+12,11/19/2025,42:56.3,0.32,-4.47,102.87,40.46035254,-109.5652642,18.9,,2.94,OFF,,,,0.12,v1:altimeter:LIGHTWARESF30D:0,12,1
1.76358E+12,11/19/2025,42:56.4,0.5,-3.44,102.92,40.46035233,-109.565264,18.64,,2.91,OFF,,,,0.11,v1:altimeter:LIGHTWARESF30D:0,,
1.76358E+12,11/19/2025,42:56.5,-0.65,-1.1,103.01,40.4603525,-109.565264,18.29,,2.89,OFF,,,,0.12,v1:altimeter:LIGHTWARESF30D:0,,
1.76358E+12,11/19/2025,42:56.6,-1.07,0.45,102.99,40.46035241,-109.5652639,18.05,,2.88,OFF,,,,0.12,v1:altimeter:LIGHTWARESF30D:0,,
1.76358E+12,11/19/2025,42:56.7,-0.16,-0.11,102.72,40.46035198,-109.5652636,17.76,,2.87,OFF,,,,0.11,v1:altimeter:LIGHTWARESF30D:0,,
1.76358E+12,11/19/2025,42:56.7,0.86,-1.67,102.61,40.46035187,-109.5652636,17.49,,2.85,OFF,,,,0.12,v1:altimeter:LIGHTWARESF30D:0,130,5
1.76358E+12,11/19/2025,42:56.9,1.78,-4.16,102.44,40.46035193,-109.5652635,17.21,,2.82,OFF,,,,0.12,v1:altimeter:LIGHTWARESF30D:0,,
1.76358E+12,11/19/2025,42:57.0,2.01,-4.77,102.52,40.46035191,-109.5652634,16.94,,2.8,OFF,,,,0.11,v1:altimeter:LIGHTWARESF30D:0,,
1.76358E+12,11/19/2025,42:57.1,0.85,-2.68,102.84,40.46035218,-109.5652634,16.66,,2.74,OFF,,,,0.11,v1:altimeter:LIGHTWARESF30D:0,,
1.76358E+12,11/19/2025,42:57.2,-0.9,1,103.04,40.46035226,-109.5652634,16.39,,2.69,OFF,,,,0.12,v1:altimeter:LIGHTWARESF30D:0,,
1.76358E+12,11/19/2025,42:57.3,-1.89,2.85,102.86,40.4603523,-109.5652635,16.12,,2.66,OFF,,,,0.12,v1:altimeter:LIGHTWARESF30D:0,4,5
1.76358E+12,11/19/2025,42:57.4,-1.59,1.88,102.21,40.46035231,-109.5652635,15.8,,2.62,OFF,,,,0.12,v1:altimeter:LIGHTWARESF30D:0,,
1.76358E+12,11/19/2025,42:57.5,-0.83,0.23,101.85,40.4603522,-109.5652635,15.54,,2.58,OFF,,,,0.11,v1:altimeter:LIGHTWARESF30D:0,,
1.76358E+12,11/19/2025,42:57.6,-0.37,-0.9,101.71,40.46035217,-109.5652635,15.29,,2.54,OFF,,,,0.11,v1:altimeter:LIGHTWARESF30D:0,,
1.76358E+12,11/19/2025,42:57.7,-0.11,-1.28,101.82,40.4603521,-109.5652634,15.04,,2.51,OFF,,,,0.11,v1:altimeter:LIGHTWARESF30D:0,,
1.76358E+12,11/19/2025,42:57.8,-0.78,-0.51,102.11,40.46035209,-109.5652634,14.83,,2.49,OFF,,,,0.11,v1:altimeter:LIGHTWARESF30D:0,12,5
1.76358E+12,11/19/2025,42:57.9,-1.39,-0.18,102.27,40.46035204,-109.5652634,14.54,,2.46,OFF,,,,0.12,v1:altimeter:LIGHTWARESF30D:0,,
1.76358E+12,11/19/2025,42:58.0,-1.29,-0.28,102.33,40.46035201,-109.5652634,14.33,,2.45,OFF,,,,0.12,v1:altimeter:LIGHTWARESF30D:0,,
1.76358E+12,11/19/2025,42:58.1,-0.78,-0.56,102.42,40.46035194,-109.5652633,14.08,,2.43,OFF,,,,0.12,v1:altimeter:LIGHTWARESF30D:0,,
1.76358E+12,11/19/2025,42:58.2,-0.56,-0.53,102.42,40.46035191,-109.5652633,13.84,,2.4,OFF,,,,0.11,v1:altimeter:LIGHTWARESF30D:0,,
1.76358E+12,11/19/2025,42:58.3,-0.78,-0.31,102.33,40.46035191,-109.5652634,13.6,,2.36,OFF,,,,0.1,v1:altimeter:LIGHTWARESF30D:0,20,1
1.76358E+12,11/19/2025,42:58.4,-1.44,-0.41,102.15,40.46035187,-109.5652634,13.37,,2.33,OFF,,,,0.12,v1:altimeter:LIGHTWARESF30D:0,,
1.76358E+12,11/19/2025,42:58.5,-1.79,-1.23,102,40.46035173,-109.5652635,13.09,,2.28,OFF,,,,0.11,v1:altimeter:LIGHTWARESF30D:0,,
1.76358E+12,11/19/2025,42:58.6,-1.59,-1.64,102.05,40.4603517,-109.5652635,12.91,,2.25,OFF,,,,0.12,v1:altimeter:LIGHTWARESF30D:0,,
1.76358E+12,11/19/2025,42:58.7,-0.94,-1.14,102.21,40.46035197,-109.5652634,12.69,,2.24,OFF,,,,0.12,v1:altimeter:LIGHTWARESF30D:0,,
1.76358E+12,11/19/2025,42:58.7,-1.08,-0.21,102.35,40.46035199,-109.5652634,12.45,,2.21,OFF,,,,0.09,v1:altimeter:LIGHTWARESF30D:0,56,1
1.76358E+12,11/19/2025,42:58.9,-1.44,0.79,102.48,40.46035212,-109.5652632,12.24,,2.18,OFF,,,,0.1,v1:altimeter:LIGHTWARESF30D:0,,
1.76358E+12,11/19/2025,42:59.0,-1.55,1.14,102.58,40.46035214,-109.5652631,12.02,,2.15,OFF,,,,0.1,v1:altimeter:LIGHTWARESF30D:0,,
1.76358E+12,11/19/2025,42:59.1,-0.84,0.42,102.57,40.46035212,-109.5652632,11.81,,2.14,OFF,,,,0.11,v1:altimeter:LIGHTWARESF30D:0,,
1.76358E+12,11/19/2025,42:59.2,0.4,-0.85,102.55,40.46035213,-109.5652631,11.56,,2.1,OFF,,,,0.11,v1:altimeter:LIGHTWARESF30D:0,,
1.76358E+12,11/19/2025,42:59.3,0.69,-1.23,102.58,40.4603517,-109.565263,11.4,,2,OFF,,,,0.1,v1:altimeter:LIGHTWARESF30D:0,325,5
1.76358E+12,11/19/2025,42:59.4,0.31,-0.86,102.58,40.4603517,-109.565263,11.17,,1.76,OFF,,,,0.1,v1:altimeter:LIGHTWARESF30D:0,,
1.76358E+12,11/19/2025,42:59.5,-0.67,0.2,102.55,40.4603516,-109.5652631,11.01,,1.58,OFF,,,,0.12,v1:altimeter:LIGHTWARESF30D:0,,
1.76358E+12,11/19/2025,42:59.6,-1.56,0.76,102.39,40.46035159,-109.5652631,10.86,,1.47,OFF,,,,0.11,v1:altimeter:LIGHTWARESF30D:0,,
1.76358E+12,11/19/2025,42:59.7,-1.96,0.49,102.19,40.46035167,-109.565263,10.73,,1.32,OFF,,,,0.11,v1:altimeter:LIGHTWARESF30D:0,,
1.76358E+12,11/19/2025,42:59.8,-1.92,0.2,102.13,40.46035164,-109.565263,10.64,,1.12,OFF,,,,0.12,v1:altimeter:LIGHTWARESF30D:0,324,5
1.76358E+12,11/19/2025,42:59.9,-1.76,-0.15,102.15,40.46035173,-109.5652632,10.55,,0.84,OFF,,,,0.11,v1:altimeter:LIGHTWARESF30D:0,,
1.76358E+12,11/19/2025,43:00.0,-1.5,-0.52,102.2,40.46035168,-109.5652631,10.48,,0.54,OFF,,,,0.12,v1:altimeter:LIGHTWARESF30D:0,,
1.76358E+12,11/19/2025,43:00.1,-1.66,-0.85,102.33,40.46035134,-109.5652629,10.45,,0.33,OFF,,,,0.11,v1:altimeter:LIGHTWARESF30D:0,,
1.76358E+12,11/19/2025,43:00.2,-1.91,-0.92,102.42,40.46035126,-109.5652628,10.42,,0.19,OFF,,,,0.11,v1:altimeter:LIGHTWARESF30D:0,,
1.76358E+12,11/19/2025,43:00.2,-1.97,-0.77,102.47,40.46035139,-109.5652628,10.42,,0.07,OFF,,,,0.11,v1:altimeter:LIGHTWARESF30D:0,9,1
1.76358E+12,11/19/2025,43:00.4,-1.59,-0.48,102.49,40.46035134,-109.5652626,10.42,,0.06,OFF,,,,0.12,v1:altimeter:LIGHTWARESF30D:0,,
1.76358E+12,11/19/2025,43:00.5,-0.93,-0.16,102.48,40.46035115,-109.5652624,10.43,,0.12,OFF,,,,0.11,v1:altimeter:LIGHTWARESF30D:0,,
1.76358E+12,11/19/2025,43:00.6,-0.54,-0.02,102.48,40.46035109,-109.5652623,10.44,,0.14,OFF,,,,0.11,v1:altimeter:LIGHTWARESF30D:0,,
1.76358E+12,11/19/2025,43:00.7,-0.3,0,102.44,40.4603514,-109.5652622,10.46,,0.14,OFF,,,,0.11,v1:altimeter:LIGHTWARESF30D:0,,
1.76358E+12,11/19/2025,43:00.8,-0.22,-0.07,102.45,40.46035137,-109.5652621,10.48,,0.14,OFF,,,,0.12,v1:altimeter:LIGHTWARESF30D:0,,
1.76358E+12,11/19/2025,43:00.8,-0.22,-0.07,102.45,40.46035137,-109.5652621,10.48,,0.14,OFF,,,,0.12,v1:altimeter:LIGHTWARESF30D:0,15,1
1.76358E+12,11/19/2025,43:00.9,-0.13,-0.05,102.46,40.46035126,-109.5652619,10.5,,0.12,OFF,,,,0.11,v1:altimeter:LIGHTWARESF30D:0,,
1.76358E+12,11/19/2025,43:01.0,-0.05,-0.07,102.48,40.46035123,-109.5652618,10.51,,0.09,OFF,,,,0.12,v1:altimeter:LIGHTWARESF30D:0,,
1.76358E+12,11/19/2025,43:01.1,0.11,-0.1,102.49,40.46035145,-109.5652616,10.53,,0.07,OFF,,,,0.12,v1:altimeter:LIGHTWARESF30D:0,,
1.76358E+12,11/19/2025,43:01.2,0.33,-0.2,102.49,40.46035144,-109.5652616,10.53,,0.04,OFF,,,,0.12,v1:altimeter:LIGHTWARESF30D:0,,
1.76358E+12,11/19/2025,43:01.3,0.39,-0.23,102.49,40.46035134,-109.5652615,10.54,,0.02,OFF,,,,0.12,v1:altimeter:LIGHTWARESF30D:0,32,1
1.76358E+12,11/19/2025,43:01.4,0.37,-0.23,102.51,40.46035132,-109.5652614,10.55,,0.01,OFF,,,,0.11,v1:altimeter:LIGHTWARESF30D:0,,
1.76358E+12,11/19/2025,43:01.5,0.24,-0.19,102.52,40.46035123,-109.5652614,10.55,,0.03,OFF,,,,0.11,v1:altimeter:LIGHTWARESF30D:0,,
1.76358E+12,11/19/2025,43:01.6,0.13,-0.08,102.54,40.46035123,-109.5652614,10.55,,0.04,OFF,,,,0.11,v1:altimeter:LIGHTWARESF30D:0,,
1.76358E+12,11/19/2025,43:01.7,-0.04,0.1,102.57,40.46035114,-109.5652615,10.55,,0.05,OFF,,,,0.11,v1:altimeter:LIGHTWARESF30D:0,,
1.76358E+12,11/19/2025,43:01.8,-0.12,0.39,102.58,40.46035113,-109.5652615,10.55,,0.07,OFF,,,,0.11,v1:altimeter:LIGHTWARESF30D:0,5,1
1.76358E+12,11/19/2025,43:01.9,-0.2,3.16,102.68,40.46035101,-109.5652615,10.54,,0.08,OFF,,,,0.11,v1:altimeter:LIGHTWARESF30D:0,,
1.76358E+12,11/19/2025,43:02.0,-0.38,7.75,102.77,40.46035093,-109.5652616,10.53,,0.15,OFF,,,,0.12,v1:altimeter:LIGHTWARESF30D:0,,
1.76358E+12,11/19/2025,43:02.1,-0.71,11.84,102.65,40.46035064,-109.5652617,10.53,,0.27,OFF,,,,0.13,v1:altimeter:LIGHTWARESF30D:0,,
1.76358E+12,11/19/2025,43:02.2,-1.07,14.44,102.41,40.46035026,-109.5652618,10.52,,0.49,OFF,,,,0.12,v1:altimeter:LIGHTWARESF30D:0,,
1.76358E+12,11/19/2025,43:02.3,-1.57,16.39,102.21,40.46034959,-109.5652619,10.51,,0.8,OFF,,,,0.1,v1:altimeter:LIGHTWARESF30D:0,,
1.76358E+12,11/19/2025,43:02.4,-2.14,16.69,101.97,40.46034875,-109.5652621,10.5,,1.02,OFF,,,,0.12,v1:altimeter:LIGHTWARESF30D:0,,
1.76358E+12,11/19/2025,43:02.5,-2.1,12.32,101.75,40.46034754,-109.5652625,10.49,,1.32,OFF,,,,0.11,v1:altimeter:LIGHTWARESF30D:0,,
1.76358E+12,11/19/2025,43:02.6,-1.51,1.85,101.57,40.46034628,-109.5652629,10.49,,1.44,OFF,,,,0.11,v1:altimeter:LIGHTWARESF30D:0,,
1.76358E+12,11/19/2025,43:02.7,-0.89,-9.2,101.61,40.46034499,-109.5652633,10.49,,1.38,OFF,,,,0.11,v1:altimeter:LIGHTWARESF30D:0,,
1.76358E+12,11/19/2025,43:02.8,-0.29,-14.15,101.97,40.46034382,-109.5652636,10.48,,1.21,OFF,,,,0.11,v1:altimeter:LIGHTWARESF30D:0,7,1
1.76358E+12,11/19/2025,43:02.9,0.28,-14.25,102.62,40.4603429,-109.5652638,10.48,,0.89,OFF,,,,0.1,v1:altimeter:LIGHTWARESF30D:0,,
1.76358E+12,11/19/2025,43:03.0,0.21,-10.23,102.99,40.46034215,-109.565264,10.48,,0.66,OFF,,,,0.1,v1:altimeter:LIGHTWARESF30D:0,,
1.76358E+12,11/19/2025,43:03.1,-0.19,-5.83,103.07,40.46034222,-109.5652641,10.48,,0.52,OFF,,,,0.11,v1:altimeter:LIGHTWARESF30D:0,,
1.76358E+12,11/19/2025,43:03.2,-0.69,-3.14,102.89,40.46034178,-109.5652643,10.48,,0.45,OFF,,,,0.12,v1:altimeter:LIGHTWARESF30D:0,,
1.76358E+12,11/19/2025,43:03.3,-0.96,-2.39,102.64,40.46034126,-109.5652644,10.48,,0.41,OFF,,,,0.12,v1:altimeter:LIGHTWARESF30D:0,10,1
1.76358E+12,11/19/2025,43:03.4,-1,-2.49,102.44,40.46034085,-109.5652645,10.48,,0.38,OFF,,,,0.12,v1:altimeter:LIGHTWARESF30D:0,,
1.76358E+12,11/19/2025,43:03.5,-0.73,-3.07,102.32,40.46034052,-109.5652644,10.48,,0.32,OFF,,,,0.12,v1:altimeter:LIGHTWARESF30D:0,,
1.76358E+12,11/19/2025,43:03.6,-0.57,-3.62,102.28,40.46034027,-109.5652645,10.47,,0.27,OFF,,,,0.12,v1:altimeter:LIGHTWARESF30D:0,,
1.76358E+12,11/19/2025,43:03.7,-0.49,-3.51,102.33,40.46034001,-109.5652645,10.47,,0.22,OFF,,,,0.12,v1:altimeter:LIGHTWARESF30D:0,,
1.76358E+12,11/19/2025,43:03.7,-0.59,-2.91,102.38,40.46033988,-109.5652646,10.47,,0.16,OFF,,,,0.11,v1:altimeter:LIGHTWARESF30D:0,3,1
1.76358E+12,11/19/2025,43:03.9,-0.83,-2.16,102.42,40.46033959,-109.5652647,10.47,,0.12,OFF,,,,0.11,v1:altimeter:LIGHTWARESF30D:0,,
1.76358E+12,11/19/2025,43:04.0,-0.96,-1.71,102.43,40.4603395,-109.5652647,10.47,,0.08,OFF,,,,0.12,v1:altimeter:LIGHTWARESF30D:0,,
1.76358E+12,11/19/2025,43:04.1,-0.91,-1.47,102.42,40.46033958,-109.5652646,10.47,,0.05,OFF,,,,0.11,v1:altimeter:LIGHTWARESF30D:0,,
1.76358E+12,11/19/2025,43:04.2,-0.7,-1.28,102.39,40.46033955,-109.5652646,10.46,,0.03,OFF,,,,0.11,v1:altimeter:LIGHTWARESF30D:0,,
1.76358E+12,11/19/2025,43:04.3,-0.51,-1.25,102.35,40.46033951,-109.5652645,10.46,,0.03,OFF,,,,0.12,v1:altimeter:LIGHTWARESF30D:0,7,1
1.76358E+12,11/19/2025,43:04.4,-0.34,-1.32,101.96,40.46033952,-109.5652644,10.46,,0.03,OFF,,,,0.1,v1:altimeter:LIGHTWARESF30D:0,,
1.76358E+12,11/19/2025,43:04.5,-0.35,-1.29,101.28,40.46033946,-109.5652644,10.46,,0.04,OFF,,,,0.11,v1:altimeter:LIGHTWARESF30D:0,,
1.76358E+12,11/19/2025,43:04.6,-0.47,-1.02,100.02,40.4603395,-109.5652644,10.46,,0.05,OFF,,,,0.12,v1:altimeter:LIGHTWARESF30D:0,,
1.76358E+12,11/19/2025,43:04.7,-0.68,-0.71,98.09,40.4603395,-109.5652643,10.46,,0.06,OFF,,,,0.12,v1:altimeter:LIGHTWARESF30D:0,,
1.76358E+12,11/19/2025,43:04.8,-0.75,-0.49,96.65,40.46033954,-109.5652643,10.45,,0.07,OFF,,,,0.12,v1:altimeter:LIGHTWARESF30D:0,10,1
1.76358E+12,11/19/2025,43:04.9,-0.6,-0.3,93.12,40.46033969,-109.5652641,10.45,,0.07,OFF,,,,0.11,v1:altimeter:LIGHTWARESF30D:0,,
1.76358E+12,11/19/2025,43:05.0,-0.45,-0.22,90.46,40.46033977,-109.565264,10.45,,0.07,OFF,,,,0.11,v1:altimeter:LIGHTWARESF30D:0,,
1.76358E+12,11/19/2025,43:05.1,-0.22,-0.24,86.87,40.4603398,-109.5652641,10.45,,0.08,OFF,,,,0.12,v1:altimeter:LIGHTWARESF30D:0,,
1.76358E+12,11/19/2025,43:05.2,-0.06,-0.24,83.04,40.46033988,-109.5652641,10.45,,0.08,OFF,,,,0.1,v1:altimeter:LIGHTWARESF30D:0,,
1.76358E+12,11/19/2025,43:05.2,0.03,-0.2,79.31,40.46034003,-109.5652639,10.44,,0.08,OFF,,,,0.13,v1:altimeter:LIGHTWARESF30D:0,1,1
1.76358E+12,11/19/2025,43:05.4,0.01,-0.08,75.47,40.46034015,-109.5652639,10.44,,0.09,OFF,,,,0.12,v1:altimeter:LIGHTWARESF30D:0,,
1.76358E+12,11/19/2025,43:05.5,-0.17,0.21,71.1,40.46034004,-109.565264,10.44,,0.1,OFF,,,,0.11,v1:altimeter:LIGHTWARESF30D:0,,
1.76358E+12,11/19/2025,43:05.6,-0.35,0.47,67.71,40.46034013,-109.5652641,10.44,,0.1,OFF,,,,0.12,v1:altimeter:LIGHTWARESF30D:0,,
1.76358E+12,11/19/2025,43:05.7,-0.43,0.63,65.34,40.46034016,-109.5652642,10.44,,0.11,OFF,,,,0.12,v1:altimeter:LIGHTWARESF30D:0,,
1.76358E+12,11/19/2025,43:05.8,-0.5,0.79,62.59,40.46034023,-109.5652642,10.44,,0.1,OFF,,,,0.12,v1:altimeter:LIGHTWARESF30D:0,,
1.76358E+12,11/19/2025,43:05.8,-0.51,0.82,62.07,40.46034023,-109.5652642,10.44,,0.11,OFF,,,,0.12,v1:altimeter:LIGHTWARESF30D:0,23,1
1.76358E+12,11/19/2025,43:05.9,-0.59,1.08,59.72,40.46034063,-109.5652643,10.44,,0.11,OFF,,,,0.12,v1:altimeter:LIGHTWARESF30D:0,,
1.76358E+12,11/19/2025,43:06.0,-0.65,1.36,57.57,40.46034071,-109.5652644,10.44,,0.1,OFF,,,,0.12,v1:altimeter:LIGHTWARESF30D:0,,
1.76358E+12,11/19/2025,43:06.1,-0.65,1.56,55.56,40.46034058,-109.5652644,10.45,,0.1,OFF,,,,0.11,v1:altimeter:LIGHTWARESF30D:0,,
1.76358E+12,11/19/2025,43:06.2,-0.64,1.72,53.25,40.46034064,-109.5652645,10.45,,0.08,OFF,,,,0.11,v1:altimeter:LIGHTWARESF30D:0,,
1.76358E+12,11/19/2025,43:06.3,-0.66,1.68,52.14,40.46034072,-109.5652644,10.45,,0.07,OFF,,,,0.11,v1:altimeter:LIGHTWARESF30D:0,35,1
1.76358E+12,11/19/2025,43:06.4,-0.69,1.53,49.55,40.46034075,-109.5652645,10.45,,0.07,OFF,,,,0.12,v1:altimeter:LIGHTWARESF30D:0,,
1.76358E+12,11/19/2025,43:06.5,-0.72,1.56,47.06,40.46034063,-109.5652645,10.45,,0.06,OFF,,,,0.12,v1:altimeter:LIGHTWARESF30D:0,,
1.76358E+12,11/19/2025,43:06.6,-0.75,1.62,44.21,40.46034062,-109.5652645,10.45,,0.06,OFF,,,,0.12,v1:altimeter:LIGHTWARESF30D:0,,
1.76358E+12,11/19/2025,43:06.7,-0.82,1.56,41.01,40.4603407,-109.5652645,10.45,,0.05,OFF,,,,0.11,v1:altimeter:LIGHTWARESF30D:0,,
1.76358E+12,11/19/2025,43:06.8,-0.9,1.5,38.12,40.46034069,-109.5652645,10.45,,0.05,OFF,,,,0.12,v1:altimeter:LIGHTWARESF30D:0,24,1
1.76358E+12,11/19/2025,43:06.9,-0.98,1.43,34.34,40.46034048,-109.5652644,10.46,,0.05,OFF,,,,0.12,v1:altimeter:LIGHTWARESF30D:0,,
1.76358E+12,11/19/2025,43:07.0,-1.09,1.3,29.81,40.46034043,-109.5652645,10.45,,0.05,OFF,,,,0.11,v1:altimeter:LIGHTWARESF30D:0,,
1.76358E+12,11/19/2025,43:07.1,-1.3,1.15,26.46,40.46034043,-109.5652645,10.45,,0.05,OFF,,,,0.12,v1:altimeter:LIGHTWARESF30D:0,,
1.76358E+12,11/19/2025,43:07.2,-1.6,0.96,24.04,40.46034041,-109.5652645,10.45,,0.05,OFF,,,,0.13,v1:altimeter:LIGHTWARESF30D:0,,
1.76358E+12,11/19/2025,43:07.3,-1.71,0.9,22.85,40.46034038,-109.5652644,10.45,,0.05,OFF,,,,0.11,v1:altimeter:LIGHTWARESF30D:0,,
1.76358E+12,11/19/2025,43:07.4,-1.53,0.94,21.9,40.46034039,-109.5652644,10.45,,0.05,OFF,,,,0.11,v1:altimeter:LIGHTWARESF30D:0,,
1.76358E+12,11/19/2025,43:07.5,-1.18,1.13,21.65,40.46034047,-109.5652643,10.45,,0.06,OFF,,,,0.1,v1:altimeter:LIGHTWARESF30D:0,,
1.76358E+12,11/19/2025,43:07.6,-0.76,1.39,21.68,40.46034052,-109.5652643,10.45,,0.06,OFF,,,,0.12,v1:altimeter:LIGHTWARESF30D:0,,
1.76358E+12,11/19/2025,43:07.7,-0.45,1.56,21.78,40.46034059,-109.5652641,10.45,,0.06,OFF,,,,0.12,v1:altimeter:LIGHTWARESF30D:0,,
1.76358E+12,11/19/2025,43:07.8,-0.78,2.43,21.99,40.46034063,-109.5652641,10.44,,0.05,OFF,,,,0.11,v1:altimeter:LIGHTWARESF30D:0,566,5
1.76358E+12,11/19/2025,43:07.9,-2.43,6.73,22.27,40.46034056,-109.5652641,10.44,,0.05,OFF,,,,0.12,v1:altimeter:LIGHTWARESF30D:0,,
1.76358E+12,11/19/2025,43:08.0,-3.97,12.45,22.34,40.46034058,-109.5652639,10.44,,0.18,OFF,,,,0.13,v1:altimeter:LIGHTWARESF30D:0,,
1.76358E+12,11/19/2025,43:08.1,-4.79,16.87,22.11,40.46034047,-109.5652634,10.44,,0.41,OFF,,,,0.12,v1:altimeter:LIGHTWARESF30D:0,,
1.76358E+12,11/19/2025,43:08.2,-4.68,18.7,21.99,40.46034043,-109.5652627,10.43,,0.7,OFF,,,,0.12,v1:altimeter:LIGHTWARESF30D:0,,
1.76358E+12,11/19/2025,43:08.3,-4.19,18.33,21.89,40.4603403,-109.5652618,10.44,,0.94,OFF,,,,0.12,v1:altimeter:LIGHTWARESF30D:0,2,1
1.76358E+12,11/19/2025,43:08.4,-3.56,16.15,21.84,40.46034013,-109.5652602,10.42,,1.22,OFF,,,,0.12,v1:altimeter:LIGHTWARESF30D:0,,
1.76358E+12,11/19/2025,43:08.5,-3.51,13.2,21.7,40.46033993,-109.5652583,10.42,,1.44,OFF,,,,0.13,v1:altimeter:LIGHTWARESF30D:0,,
1.76358E+12,11/19/2025,43:08.6,-4.33,11.02,21.53,40.46033972,-109.5652564,10.42,,1.62,OFF,,,,0.11,v1:altimeter:LIGHTWARESF30D:0,,
1.76358E+12,11/19/2025,43:08.7,-5.89,9.47,21.36,40.46033953,-109.5652543,10.42,,1.78,OFF,,,,0.12,v1:altimeter:LIGHTWARESF30D:0,,
1.76358E+12,11/19/2025,43:08.8,-6.99,8.18,21.23,40.46033938,-109.5652525,10.42,,1.88,OFF,,,,0.11,v1:altimeter:LIGHTWARESF30D:0,15,1
1.76358E+12,11/19/2025,43:08.9,-8.09,5.98,21.13,40.46033925,-109.5652501,10.42,,1.98,OFF,,,,0.09,v1:altimeter:LIGHTWARESF30D:0,,
1.76358E+12,11/19/2025,43:09.0,-8.8,3.45,21.22,40.46033918,-109.5652476,10.42,,2.05,OFF,,,,0.1,v1:altimeter:LIGHTWARESF30D:0,,
1.76358E+12,11/19/2025,43:09.1,-9.19,1.53,21.42,40.46033932,-109.5652448,10.41,,2.1,OFF,,,,0.09,v1:altimeter:LIGHTWARESF30D:0,,
1.76358E+12,11/19/2025,43:09.2,-9.24,0.42,21.74,40.46033949,-109.5652422,10.41,,2.14,OFF,,,,0.09,v1:altimeter:LIGHTWARESF30D:0,,
1.76358E+12,11/19/2025,43:09.3,-8.9,0.22,21.91,40.4603397,-109.5652399,10.41,,2.16,OFF,,,,0.1,v1:altimeter:LIGHTWARESF30D:0,9,1
1.76358E+12,11/19/2025,43:09.4,-7.52,-0.01,22.06,40.46034017,-109.5652367,10.41,,2.19,OFF,,,,0.1,v1:altimeter:LIGHTWARESF30D:0,,
1.76358E+12,11/19/2025,43:09.5,-6.63,-0.05,22.09,40.46034081,-109.5652342,10.41,,2.21,OFF,,,,0.1,v1:altimeter:LIGHTWARESF30D:0,,
1.76358E+12,11/19/2025,43:09.6,-6.28,-0.02,22.13,40.46034141,-109.5652317,10.4,,2.23,OFF,,,,0.11,v1:altimeter:LIGHTWARESF30D:0,,
1.76358E+12,11/19/2025,43:09.7,-6.35,-0.1,22.07,40.46034198,-109.5652292,10.4,,2.24,OFF,,,,0.1,v1:altimeter:LIGHTWARESF30D:0,,
1.76358E+12,11/19/2025,43:09.8,-6.53,-0.12,22.13,40.46034257,-109.5652272,10.4,,2.26,OFF,,,,0.1,v1:altimeter:LIGHTWARESF30D:0,6,1
1.76358E+12,11/19/2025,43:09.9,-6.69,0,22.1,40.4603436,-109.5652241,10.4,,2.28,OFF,,,,0.11,v1:altimeter:LIGHTWARESF30D:0,,
1.76358E+12,11/19/2025,43:10.0,-6.49,0.17,22.09,40.46034452,-109.5652216,10.4,,2.31,OFF,,,,0.11,v1:altimeter:LIGHTWARESF30D:0,,
1.76358E+12,11/19/2025,43:10.1,-5.98,0.42,22.06,40.4603456,-109.5652191,10.4,,2.33,OFF,,,,0.11,v1:altimeter:LIGHTWARESF30D:0,,
1.76358E+12,11/19/2025,43:10.2,-5.02,0.58,22.01,40.46034667,-109.5652166,10.4,,2.35,OFF,,,,0.1,v1:altimeter:LIGHTWARESF30D:0,,
1.76358E+12,11/19/2025,43:10.2,-4.49,0.61,21.98,40.4603476,-109.5652146,10.4,,2.36,OFF,,,,0.11,v1:altimeter:LIGHTWARESF30D:0,37,1
1.76358E+12,11/19/2025,43:10.4,-3.95,0.74,21.96,40.460349,-109.5652118,10.4,,2.37,OFF,,,,0.12,v1:altimeter:LIGHTWARESF30D:0,,
1.76358E+12,11/19/2025,43:10.5,-3.6,0.75,21.96,40.46035036,-109.5652092,10.41,,2.37,OFF,,,,0.12,v1:altimeter:LIGHTWARESF30D:0,,
1.76358E+12,11/19/2025,43:10.6,-3.57,0.75,22.04,40.46035162,-109.5652069,10.4,,2.37,OFF,,,,0.12,v1:altimeter:LIGHTWARESF30D:0,,
1.76358E+12,11/19/2025,43:10.7,-3.84,0.84,22.12,40.46035307,-109.5652046,10.4,,2.37,OFF,,,,0.11,v1:altimeter:LIGHTWARESF30D:0,,
1.76358E+12,11/19/2025,43:10.8,-4.01,0.79,22.16,40.46035441,-109.5652024,10.4,,2.36,OFF,,,,0.12,v1:altimeter:LIGHTWARESF30D:0,,
1.76358E+12,11/19/2025,43:10.8,-4.01,0.79,22.16,40.46035441,-109.5652024,10.4,,2.36,OFF,,,,0.12,v1:altimeter:LIGHTWARESF30D:0,30,1
1.76358E+12,11/19/2025,43:10.9,-4.03,0.8,22.23,40.46035614,-109.5651995,10.41,,2.37,OFF,,,,0.12,v1:altimeter:LIGHTWARESF30D:0,,
1.76358E+12,11/19/2025,43:11.0,-3.88,0.97,22.31,40.46035757,-109.5651972,10.41,,2.38,OFF,,,,0.11,v1:altimeter:LIGHTWARESF30D:0,,
1.76358E+12,11/19/2025,43:11.1,-3.53,1.16,22.35,40.46035907,-109.565195,10.41,,2.38,OFF,,,,0.11,v1:altimeter:LIGHTWARESF30D:0,,
1.76358E+12,11/19/2025,43:11.2,-3.27,1.39,22.39,40.46036056,-109.5651928,10.41,,2.39,OFF,,,,0.12,v1:altimeter:LIGHTWARESF30D:0,,
1.76358E+12,11/19/2025,43:11.3,-3.15,1.5,22.34,40.46036177,-109.5651915,10.41,,2.39,OFF,,,,0.11,v1:altimeter:LIGHTWARESF30D:0,15,1
1.76358E+12,11/19/2025,43:11.4,-3.2,1.38,22.27,40.4603633,-109.5651894,10.41,,2.39,OFF,,,,0.09,v1:altimeter:LIGHTWARESF30D:0,,
1.76358E+12,11/19/2025,43:11.5,-3.27,1.19,22.19,40.46036501,-109.5651871,10.41,,2.38,OFF,,,,0.11,v1:altimeter:LIGHTWARESF30D:0,,
1.76358E+12,11/19/2025,43:11.6,-2.95,1.07,22.15,40.46036661,-109.5651851,10.41,,2.38,OFF,,,,0.11,v1:altimeter:LIGHTWARESF30D:0,,
1.76358E+12,11/19/2025,43:11.7,-1.84,1.23,22.16,40.4603682,-109.5651831,10.41,,2.37,OFF,,,,0.11,v1:altimeter:LIGHTWARESF30D:0,,
1.76358E+12,11/19/2025,43:11.8,-0.85,1.52,22.27,40.46036949,-109.5651815,10.41,,2.35,OFF,,,,0.1,v1:altimeter:LIGHTWARESF30D:0,27,1
1.76358E+12,11/19/2025,43:11.9,0.14,1.75,22.39,40.46037112,-109.5651794,10.42,,2.31,OFF,,,,0.1,v1:altimeter:LIGHTWARESF30D:0,,
1.76358E+12,11/19/2025,43:12.0,0.81,1.65,22.53,40.46037267,-109.5651775,10.41,,2.27,OFF,,,,0.12,v1:altimeter:LIGHTWARESF30D:0,,
1.76358E+12,11/19/2025,43:12.1,1.01,1.35,22.54,40.46037424,-109.5651755,10.41,,2.21,OFF,,,,0.11,v1:altimeter:LIGHTWARESF30D:0,,
1.76358E+12,11/19/2025,43:12.2,0.99,1.07,22.56,40.46037572,-109.5651737,10.41,,2.16,OFF,,,,0.09,v1:altimeter:LIGHTWARESF30D:0,,
1.76358E+12,11/19/2025,43:12.2,0.85,0.83,22.52,40.46037703,-109.5651721,10.42,,2.1,OFF,,,,0.1,v1:altimeter:LIGHTWARESF30D:0,1,1
1.76358E+12,11/19/2025,43:12.4,0.54,0.81,22.45,40.46037875,-109.56517,10.41,,2.05,OFF,,,,0.1,v1:altimeter:LIGHTWARESF30D:0,,
1.76358E+12,11/19/2025,43:12.5,2.58,0.25,22.24,40.4603803,-109.5651683,10.42,,1.99,OFF,,,,0.1,v1:altimeter:LIGHTWARESF30D:0,,
1.76358E+12,11/19/2025,43:12.6,7.55,-1.66,21.94,40.46038165,-109.5651667,10.42,,1.86,OFF,,,,0.12,v1:altimeter:LIGHTWARESF30D:0,,
1.76358E+12,11/19/2025,43:12.7,12.82,-3.76,21.74,40.46038275,-109.5651654,10.41,,1.65,OFF,,,,0.12,v1:altimeter:LIGHTWARESF30D:0,,
1.76358E+12,11/19/2025,43:12.8,14.47,-4.44,21.84,40.4603836,-109.5651644,10.41,,1.36,OFF,,,,0.12,v1:altimeter:LIGHTWARESF30D:0,11,1
1.76358E+12,11/19/2025,43:12.9,12.1,-3.3,22.35,40.46038449,-109.5651634,10.41,,1.02,OFF,,,,0.11,v1:altimeter:LIGHTWARESF30D:0,,
1.76358E+12,11/19/2025,43:13.0,8.09,-1.58,22.65,40.46038519,-109.5651627,10.4,,0.83,OFF,,,,0.11,v1:altimeter:LIGHTWARESF30D:0,,
1.76358E+12,11/19/2025,43:13.1,4.4,-0.11,22.63,40.46038565,-109.5651621,10.38,,0.74,OFF,,,,0.12,v1:altimeter:LIGHTWARESF30D:0,,
1.76358E+12,11/19/2025,43:13.2,2.24,0.73,22.51,40.46038617,-109.5651615,10.34,,0.75,OFF,,,,0.1,v1:altimeter:LIGHTWARESF30D:0,,
1.76358E+12,11/19/2025,43:13.3,1.62,0.97,22.4,40.46038674,-109.5651612,10.31,,0.79,OFF,,,,0.12,v1:altimeter:LIGHTWARESF30D:0,11,1
1.76358E+12,11/19/2025,43:13.4,1.79,0.93,22.3,40.4603873,-109.5651607,10.23,,0.91,OFF,,,,0.11,v1:altimeter:LIGHTWARESF30D:0,,
1.76358E+12,11/19/2025,43:13.5,2.21,0.79,22.29,40.46038774,-109.5651601,10.16,,1.01,OFF,,,,0.1,v1:altimeter:LIGHTWARESF30D:0,,
1.76358E+12,11/19/2025,43:13.6,2.44,0.81,22.34,40.46038813,-109.5651597,10.06,,1.11,OFF,,,,0.12,v1:altimeter:LIGHTWARESF30D:0,,
1.76358E+12,11/19/2025,43:13.7,2.44,1.02,22.43,40.46038843,-109.5651596,9.95,,1.19,OFF,,,,0.1,v1:altimeter:LIGHTWARESF30D:0,,
1.76358E+12,11/19/2025,43:13.8,2.25,1.32,22.49,40.46038869,-109.5651594,9.84,,1.25,OFF,,,,0.11,v1:altimeter:LIGHTWARESF30D:0,33,1
1.76358E+12,11/19/2025,43:13.9,2.1,1.46,22.51,40.46038902,-109.565159,9.71,,1.27,OFF,,,,0.1,v1:altimeter:LIGHTWARESF30D:0,,
1.76358E+12,11/19/2025,43:14.0,2.21,1.4,22.54,40.46038926,-109.5651588,9.56,,1.27,OFF,,,,0.1,v1:altimeter:LIGHTWARESF30D:0,,
1.76358E+12,11/19/2025,43:14.1,2.2,1.26,22.56,40.4603894,-109.5651587,9.46,,1.25,OFF,,,,0.12,v1:altimeter:LIGHTWARESF30D:0,,
1.76358E+12,11/19/2025,43:14.2,1.95,1.17,22.56,40.46038955,-109.5651585,9.31,,1.23,OFF,,,,0.11,v1:altimeter:LIGHTWARESF30D:0,,
1.76358E+12,11/19/2025,43:14.3,1.54,1.12,22.53,40.46038949,-109.5651585,9.21,,1.21,OFF,,,,0.11,v1:altimeter:LIGHTWARESF30D:0,,
1.76358E+12,11/19/2025,43:14.3,1.42,1.13,22.52,40.46038949,-109.5651585,9.18,,1.2,OFF,,,,0.11,v1:altimeter:LIGHTWARESF30D:0,40,1
1.76358E+12,11/19/2025,43:14.4,0.68,1.06,22.45,40.46038957,-109.5651584,9.04,,1.17,OFF,,,,0.12,v1:altimeter:LIGHTWARESF30D:0,,
1.76358E+12,11/19/2025,43:14.5,0.33,1.06,22.41,40.46038976,-109.5651585,8.95,,1.16,OFF,,,,0.11,v1:altimeter:LIGHTWARESF30D:0,,
1.76358E+12,11/19/2025,43:14.6,0.08,1.16,22.38,40.46038981,-109.5651585,8.8,,1.15,OFF,,,,0.1,v1:altimeter:LIGHTWARESF30D:0,,
1.76358E+12,11/19/2025,43:14.7,-0.06,1.3,22.36,40.46038973,-109.5651583,8.71,,1.15,OFF,,,,0.12,v1:altimeter:LIGHTWARESF30D:0,,
1.76358E+12,11/19/2025,43:14.8,-0.21,1.38,22.38,40.46038974,-109.5651584,8.62,,1.17,OFF,,,,0.1,v1:altimeter:LIGHTWARESF30D:0,26,1
1.76358E+12,11/19/2025,43:14.9,-0.38,1.63,22.46,40.4603897,-109.5651586,8.48,,1.2,OFF,,,,0.12,v1:altimeter:LIGHTWARESF30D:0,,
1.76358E+12,11/19/2025,43:15.0,-0.51,1.73,22.5,40.4603897,-109.5651586,8.35,,1.22,OFF,,,,0.11,v1:altimeter:LIGHTWARESF30D:0,,
1.76358E+12,11/19/2025,43:15.1,-0.65,1.69,22.51,40.4603896,-109.5651585,8.22,,1.25,OFF,,,,0.11,v1:altimeter:LIGHTWARESF30D:0,,
1.76358E+12,11/19/2025,43:15.2,-0.7,1.71,22.56,40.46038957,-109.5651585,8.1,,1.28,OFF,,,,0.11,v1:altimeter:LIGHTWARESF30D:0,,
1.76358E+12,11/19/2025,43:15.3,-0.63,1.76,22.56,40.46038971,-109.5651586,7.99,,1.3,OFF,,,,0.11,v1:altimeter:LIGHTWARESF30D:0,16,1
1.76358E+12,11/19/2025,43:15.4,-0.59,1.9,22.61,40.4603897,-109.5651587,7.86,,1.33,OFF,,,,0.09,v1:altimeter:LIGHTWARESF30D:0,,
1.76358E+12,11/19/2025,43:15.5,-0.67,1.92,22.6,40.46038936,-109.5651587,7.72,,1.36,OFF,,,,0.12,v1:altimeter:LIGHTWARESF30D:0,,
1.76358E+12,11/19/2025,43:15.6,-0.74,1.81,22.61,40.4603893,-109.5651588,7.58,,1.4,OFF,,,,0.11,v1:altimeter:LIGHTWARESF30D:0,,
1.76358E+12,11/19/2025,43:15.7,-0.77,1.72,22.6,40.46038951,-109.5651588,7.44,,1.43,OFF,,,,0.12,v1:altimeter:LIGHTWARESF30D:0,,
1.76358E+12,11/19/2025,43:15.8,-0.74,1.59,22.58,40.46038947,-109.5651589,7.3,,1.47,OFF,,,,0.1,v1:altimeter:LIGHTWARESF30D:0,,
1.76358E+12,11/19/2025,43:15.8,-0.74,1.59,22.58,40.46038947,-109.5651589,7.27,,1.47,OFF,,,,0.1,v1:altimeter:LIGHTWARESF30D:0,27,1
1.76358E+12,11/19/2025,43:15.9,-0.88,1.45,22.58,40.46038902,-109.5651589,7.12,,1.5,OFF,,,,0.11,v1:altimeter:LIGHTWARESF30D:0,,
1.76358E+12,11/19/2025,43:16.0,-1.06,1.55,22.63,40.46038893,-109.5651589,6.97,,1.52,OFF,,,,0.11,v1:altimeter:LIGHTWARESF30D:0,,
1.76358E+12,11/19/2025,43:16.1,-1.16,1.72,22.67,40.46038921,-109.565159,6.82,,1.53,OFF,,,,0.1,v1:altimeter:LIGHTWARESF30D:0,,
1.76358E+12,11/19/2025,43:16.2,-1.15,1.84,22.71,40.46038915,-109.565159,6.66,,1.52,OFF,,,,0.11,v1:altimeter:LIGHTWARESF30D:0,,
1.76358E+12,11/19/2025,43:16.3,-1,1.88,22.76,40.46038912,-109.5651588,6.54,,1.51,OFF,,,,0.12,v1:altimeter:LIGHTWARESF30D:0,32,1
1.76358E+12,11/19/2025,43:16.4,-0.97,1.92,22.75,40.46038904,-109.5651588,6.36,,1.48,OFF,,,,0.11,v1:altimeter:LIGHTWARESF30D:0,,
1.76358E+12,11/19/2025,43:16.5,-1.06,1.78,22.65,40.46038901,-109.5651589,6.18,,1.46,OFF,,,,0.11,v1:altimeter:LIGHTWARESF30D:0,,
1.76358E+12,11/19/2025,43:16.6,-1.17,1.6,22.6,40.46038896,-109.5651589,6.07,,1.45,OFF,,,,0.1,v1:altimeter:LIGHTWARESF30D:0,,
1.76358E+12,11/19/2025,43:16.7,-1.29,1.34,22.51,40.46038892,-109.565159,5.93,,1.43,OFF,,,,0.1,v1:altimeter:LIGHTWARESF30D:0,,
1.76358E+12,11/19/2025,43:16.8,-1.29,1.37,22.49,40.4603889,-109.565159,5.81,,1.42,OFF,,,,0.12,v1:altimeter:LIGHTWARESF30D:0,15,1
1.76358E+12,11/19/2025,43:16.9,-1.15,1.64,22.44,40.46038901,-109.5651589,5.67,,1.41,OFF,,,,0.1,v1:altimeter:LIGHTWARESF30D:0,,
1.76358E+12,11/19/2025,43:17.0,-1,1.84,22.41,40.46038898,-109.5651589,5.53,,1.4,OFF,,,,0.1,v1:altimeter:LIGHTWARESF30D:0,,
1.76358E+12,11/19/2025,43:17.1,-0.97,1.71,22.39,40.46038891,-109.5651588,5.39,,1.4,OFF,,,,0.12,v1:altimeter:LIGHTWARESF30D:0,,
1.76358E+12,11/19/2025,43:17.2,-1.05,1.49,22.41,40.46038888,-109.5651588,5.25,,1.4,OFF,,,,0.1,v1:altimeter:LIGHTWARESF30D:0,,
1.76358E+12,11/19/2025,43:17.3,-1.14,1.39,22.42,40.46038895,-109.5651588,5.11,,1.4,OFF,,,,0.13,v1:altimeter:LIGHTWARESF30D:0,14,1
1.76358E+12,11/19/2025,43:17.4,-1.23,1.59,22.45,40.46038891,-109.5651588,4.97,,1.4,OFF,,,,0.1,v1:altimeter:LIGHTWARESF30D:0,,
1.76358E+12,11/19/2025,43:17.5,-1.18,1.85,22.49,40.46038896,-109.5651585,4.83,,1.39,OFF,,,,0.1,v1:altimeter:LIGHTWARESF30D:0,,
1.76358E+12,11/19/2025,43:17.6,-1.1,1.8,22.48,40.46038894,-109.5651584,4.7,,1.38,OFF,,,,0.12,v1:altimeter:LIGHTWARESF30D:0,,
1.76358E+12,11/19/2025,43:17.7,-1.04,1.67,22.47,40.46038866,-109.5651586,4.56,,1.36,OFF,,,,0.11,v1:altimeter:LIGHTWARESF30D:0,,
